{"documents": [{"author": "Turgeon, Laurier", "authorid": 2533, "documentid": 47375, "entitiyid": 5, "journal": "Ethnologies", "journalid": 2, "lat": 46.7817, "links": [5], "lng": -71.2747, "period": "", "subtitle": "Panorama des Chaires de recherche du Canada et des chaires universitaires en ethnologie", "title": "Chaire de recherche du Canada en patrimoine ethnologique", "year": "2007"}, {"author": "Saillant, Francine", "authorid": 2648, "documentid": 47489, "entitiyid": 20, "journal": "Ethnologies", "journalid": 2, "lat": 46.7817, "links": [20], "lng": -71.2747, "period": "", "subtitle": "Articles", "title": "L\u2019humanitaire et les identit\u00e9s", "year": "2005"}, {"author": "Level, Marie", "authorid": 2773, "documentid": 47613, "entitiyid": 54, "journal": "Ethnologies", "journalid": 2, "lat": 48.8512, "links": [54], "lng": 2.34076, "period": "", "subtitle": "Articles", "title": "Jeux sportifs, codes et construction identitaire", "year": "2010"}, {"author": "Gadbois, Jocelyn", "authorid": 2781, "documentid": 47617, "entitiyid": 55, "journal": "Ethnologies", "journalid": 2, "lat": 46.7817, "links": [55, 4], "lng": -71.2747, "period": "", "subtitle": "Articles", "title": "Jouer, acte de construction identitaire?", "year": "2010"}, {"author": "Deniger, Marc-Andr\u00e9", "authorid": 2946, "documentid": 47793, "entitiyid": 89, "journal": "Lien social et Politiques", "journalid": 3, "lat": 46.7817, "links": [89], "lng": -71.2747, "period": "Automne", "subtitle": "II. Citoyens, usagers et partenaires", "title": "La nouvelle gouverne scolaire au Qu\u00e9bec\u00a0: acteurs et enjeux", "year": "2002"}, {"author": "Charpentier, Mich\u00e8le", "authorid": 3009, "documentid": 47849, "entitiyid": 96, "journal": "Lien social et Politiques", "journalid": 3, "lat": 45.5126, "links": [96, 97], "lng": -73.5606, "period": "Printemps", "subtitle": "III. Au-del\u00e0 du local, le monde", "title": "Les femmes a\u00een\u00e9es et l\u2019engagement social : une analyse exploratoire du cas des  M\u00e9m\u00e9s d\u00e9cha\u00een\u00e9es", "year": "2004"}, {"author": "Bresse, Marie-Pier", "authorid": 3046, "documentid": 47869, "entitiyid": 111, "journal": "Lien social et Politiques", "journalid": 3, "lat": 46.7817, "links": [111], "lng": -71.2747, "period": "printemps", "subtitle": "III L\u2019\u00e9preuve du logement", "title": "Se r\u00e9installer apr\u00e8s une relocalisation r\u00e9sidentielle involontaire\u00a0: entre appr\u00e9ciation de son nouveau milieu et deuil de l\u2019ancien", "year": "2010"}, {"author": "Darmon, Muriel", "authorid": 3189, "documentid": 47969, "entitiyid": 153, "journal": "Lien social et Politiques", "journalid": 3, "lat": 45.7789, "links": [153, 12, 1], "lng": 4.86796, "period": "printemps", "subtitle": "\u00a0", "title": "Pr\u00e9sentation", "year": "2008"}, {"author": "Kuehni, Morgane", "authorid": 3420, "documentid": 48157, "entitiyid": 225, "journal": "Lien social et Politiques", "journalid": 3, "lat": 46.5211, "links": [225], "lng": 6.58016, "period": "Printemps", "subtitle": "Partie 3 \u2013 Les variations de la conscience du genre dans les politiques publiques et les pratiques sociales", "title": "Maintien en emploi et in\u00e9galit\u00e9s de sexe", "year": "2013"}, {"author": "S\u00e9vigny, Odile", "authorid": 3686, "documentid": 48424, "entitiyid": 12, "journal": "Lien social et Politiques", "journalid": 3, "lat": 45.5126, "links": [12, 299], "lng": -73.5606, "period": "", "subtitle": "Th\u00e8me 1\u00a0\u2013\u00a0Savoirs", "title": "L\u2019\u00e9valuation des soins holistiques", "year": "2016"}, {"author": "Abrassart, Christophe", "authorid": 3708, "documentid": 48436, "entitiyid": 308, "journal": "Lien social et Politiques", "journalid": 3, "lat": 45.5056, "links": [308], "lng": -73.6138, "period": "Printemps", "subtitle": "Partie 2\u00a0\u2014\u00a0Exp\u00e9rimentations et d\u00e9marches de \u00ab\u00a0codesign\u00a0\u00bb", "title": "Le design social\u00a0: une sociologie des associations par le design\u00a0? Le cas de deux d\u00e9marches de codesign dans des projets de r\u00e9novation des biblioth\u00e8ques de la Ville de Montr\u00e9al", "year": "2015"}, {"author": "Couturier, Yves", "authorid": 3747, "documentid": 48467, "entitiyid": 320, "journal": "Lien social et Politiques", "journalid": 3, "lat": 45.379, "links": [320], "lng": -71.9294, "period": "automne", "subtitle": "IV L\u2019adaptation des services aux personnes d\u00e9pendantes", "title": "R\u00e9ceptivit\u00e9 d\u2019un mod\u00e8le qu\u00e9b\u00e9cois d\u2019int\u00e9gration des services aux personnes \u00e2g\u00e9es en perte d\u2019autonomie en France", "year": "2009"}, {"author": "Gagnon, Christiane", "authorid": 6477, "documentid": 58185, "entitiyid": 391, "journal": "[VertigO] La revue \u00e9lectronique en sciences de l\u2019environnement", "journalid": 8, "lat": 48.4203, "links": [391, 243, 12], "lng": -71.0527, "period": "octobre", "subtitle": "Section courante", "title": "D\u00e9veloppement territorial viable, capital social et capital environnemental", "year": "2008"}, {"author": "Nouf\u00e9, Dabissi", "authorid": 6764, "documentid": 58292, "entitiyid": 460, "journal": "[VertigO] La revue \u00e9lectronique en sciences de l\u2019environnement", "journalid": 8, "lat": 43.6316, "links": [460], "lng": 3.86345, "period": "Mai", "subtitle": "", "title": "Impact de l\u2019\u00e9volution des conditions agroclimatologiques sur les syst\u00e8mes de culture \u00e0 base de banane plantain\u00a0: le cas de l\u2019Est ivoirien", "year": "2015"}, {"author": "Soro, Tanina", "authorid": 6951, "documentid": 58371, "entitiyid": 508, "journal": "[VertigO] La revue \u00e9lectronique en sciences de l\u2019environnement", "journalid": 8, "lat": 5.34705, "links": [508], "lng": -3.98529, "period": "D\u00e9cembre", "subtitle": "Section courante ", "title": "Hydroclimatologie et dynamique de l\u2019occupation du sol du bassin versant du Haut Bandama \u00e0 Tortiya (Nord de la C\u00f4te d\u2019Ivoire)", "year": "2013"}, {"author": "Ousmane, Ndiaye", "authorid": 6989, "documentid": 58386, "entitiyid": 520, "journal": "[VertigO] La revue \u00e9lectronique en sciences de l\u2019environnement", "journalid": 8, "lat": 14.6904, "links": [520], "lng": -17.4641, "period": "D\u00e9cembre", "subtitle": "Section courante ", "title": "Diversit\u00e9 floristique des peuplements ligneux du Ferlo, S\u00e9n\u00e9gal", "year": "2013"}, {"author": "Ouattara, Ibrahim", "authorid": 7023, "documentid": 58397, "entitiyid": 528, "journal": "[VertigO] La revue \u00e9lectronique en sciences de l\u2019environnement", "journalid": 8, "lat": 46.105, "links": [528], "lng": -64.7821, "period": "d\u00e9cembre", "subtitle": "Section courante", "title": "Changements climatiques, migrations et d\u00e9fis de la gestion de l\u2019environnement", "year": "2008"}, {"author": "Sangne, Charles", "authorid": 7034, "documentid": 58402, "entitiyid": 532, "journal": "[VertigO] La revue \u00e9lectronique en sciences de l\u2019environnement", "journalid": 8, "lat": 6.88833, "links": [532], "lng": -6.43969, "period": "", "subtitle": "Section courante ", "title": "Dynamique foresti\u00e8re post-conflits arm\u00e9s de la For\u00eat class\u00e9e du Haut-Sassandra (C\u00f4te d\u2019Ivoire)", "year": "2015"}, {"author": "Cheneval, Erwan", "authorid": 7106, "documentid": 58427, "entitiyid": 548, "journal": "[VertigO] La revue \u00e9lectronique en sciences de l\u2019environnement", "journalid": 8, "lat": 45.5056, "links": [548], "lng": -73.6138, "period": "Mai", "subtitle": "", "title": "La crise alimentaire, le d\u00e9veloppement durable et les biocarburants\u00a0: perspectives d\u2019avenir", "year": "2011"}, {"author": "Bayen, Philippe", "authorid": 7295, "documentid": 58521, "entitiyid": 602, "journal": "[VertigO] La revue \u00e9lectronique en sciences de l\u2019environnement", "journalid": 8, "lat": 12.3788, "links": [602], "lng": -1.49969, "period": "", "subtitle": "Section courante ", "title": "Effet du za\u00ef am\u00e9lior\u00e9 sur la productivit\u00e9 du sorgho en zone sah\u00e9lienne", "year": "2012"}, {"author": "Rousseaux, Fr\u00e9d\u00e9ric", "authorid": 7323, "documentid": 58532, "entitiyid": 610, "journal": "[VertigO] La revue \u00e9lectronique en sciences de l\u2019environnement", "journalid": 8, "lat": 46.1424, "links": [610], "lng": -1.15742, "period": "", "subtitle": "", "title": "Vers une simulation de l\u2019\u00e9volution des structures urbaines \u00e0 partir d\u2019une mod\u00e9lisation multi-agents", "year": "2012"}, {"author": "Zirirane, Dieudonn\u00e9", "authorid": 7380, "documentid": 58563, "entitiyid": 626, "journal": "[VertigO] La revue \u00e9lectronique en sciences de l\u2019environnement", "journalid": 8, "lat": -2.54182, "links": [626], "lng": 28.8593, "period": "D\u00e9cembre", "subtitle": "Section courante ", "title": "\u00c9valuation compar\u00e9e de la pollution des rivi\u00e8res Kahuwa et Mpungwe par l\u2019utilisation des macroinvert\u00e9br\u00e9s benthiques", "year": "2014"}, {"author": "Nicolae Lerma, Alexandre", "authorid": 7400, "documentid": 58570, "entitiyid": 628, "journal": "[VertigO] La revue \u00e9lectronique en sciences de l\u2019environnement", "journalid": 8, "lat": 48.8469, "links": [628], "lng": 2.34447, "period": "D\u00e9cembre", "subtitle": "Section courante ", "title": "Mod\u00e9lisation des niveaux marins extr\u00eames associ\u00e9s \u00e0 la circulation des cyclones Lenny (1999) et Omar (2008), commune de saint-pierre, littoral nord-ouest de la Martinique", "year": "2014"}, {"author": "Mfouapon, Alassa", "authorid": 7408, "documentid": 58572, "entitiyid": 630, "journal": "[VertigO] La revue \u00e9lectronique en sciences de l\u2019environnement", "journalid": 8, "lat": 3.85741, "links": [630], "lng": 11.5014, "period": "D\u00e9cembre", "subtitle": "Section courante ", "title": "Risques \u00e9conomico-environnementaux li\u00e9s aux emballages traditionnels pour vivres frais utilis\u00e9s dans le bassin mara\u00eecher de Foumbot (Cameroun)", "year": "2014"}, {"author": "Meddour-Sahar, Ouahiba", "authorid": 7412, "documentid": 58573, "entitiyid": 631, "journal": "[VertigO] La revue \u00e9lectronique en sciences de l\u2019environnement", "journalid": 8, "lat": 36.6982, "links": [631], "lng": 4.05805, "period": "D\u00e9cembre", "subtitle": "Section courante ", "title": "Motifs des incendies de for\u00eat en Alg\u00e9rie\u00a0: analyse compar\u00e9e des dires d\u2019experts de la Protection Civile et des Forestiers par la m\u00e9thode Delphi", "year": "2014"}, {"author": "L\u00e9vy, Joseph", "authorid": 7564, "documentid": 58677, "entitiyid": 686, "journal": "Anthropologie et Soci\u00e9t\u00e9s", "journalid": 10, "lat": 45.5126, "links": [686], "lng": -73.5606, "period": "", "subtitle": "Hors th\u00e8me", "title": "Tourisme et sexualit\u00e9 en Tunisie", "year": "2001"}, {"author": "Gandsman, Ari", "authorid": 7657, "documentid": 58775, "entitiyid": 717, "journal": "Anthropologie et Soci\u00e9t\u00e9s", "journalid": 10, "lat": 45.4231, "links": [717], "lng": -75.6831, "period": "", "subtitle": "", "title": "Mourir comme mode de vie", "year": "2016"}, {"author": "Castillo, Eduardo", "authorid": 8856, "documentid": 60372, "entitiyid": 1031, "journal": "Anthropologie et Soci\u00e9t\u00e9s", "journalid": 10, "lat": 46.7812, "links": [1031, 1032], "lng": -71.275, "period": "", "subtitle": "Quatre voix pour une anthropologie", "title": "L\u2019anthropologie et ses lieux", "year": "2008"}, {"author": "Tremblay, Marc", "authorid": 10287, "documentid": 62931, "entitiyid": 1211, "journal": "Histoire Qu\u00e9bec", "journalid": 15, "lat": 48.4203, "links": [1211], "lng": -71.0527, "period": "", "subtitle": "", "title": "Au nom des pionni\u00e8res, de leurs filles et de toute leur descendance", "year": "2011"}, {"author": "C\u00f4t\u00e9, Pierre", "authorid": 10495, "documentid": 63199, "entitiyid": 1241, "journal": "Interm\u00e9dialit\u00e9s", "journalid": 16, "lat": 46.814, "links": [1241], "lng": -71.2066, "period": "printemps", "subtitle": "Programmer", "title": "Programmation architecturale  et architecture virtuelle", "year": "2009"}, {"author": "Farley, Michael", "authorid": 12445, "documentid": 66093, "entitiyid": 8, "journal": "HSTC Bulletin", "journalid": 22, "lat": 45.5056, "links": [8], "lng": -73.6138, "period": "janvier", "subtitle": "Articles", "title": "Les commencements de l\u2019administration montr\u00e9alaise de la        sant\u00e9 publique (1865-1885) -- I", "year": "1982"}, {"author": "Damant, Dominique", "authorid": 12744, "documentid": 66372, "entitiyid": 5, "journal": "Nouvelles pratiques sociales", "journalid": 24, "lat": 46.7817, "links": [5, 12], "lng": -71.2747, "period": "D\u00e9cembre", "subtitle": "", "title": "1,2,3 GO\u00a0!", "year": "1999"}, {"author": "Lapointe, Paul-Andr\u00e9", "authorid": 12903, "documentid": 66502, "entitiyid": 212, "journal": "Nouvelles pratiques sociales", "journalid": 24, "lat": 46.7817, "links": [212], "lng": -71.2747, "period": "D\u00e9cembre", "subtitle": "Hors th\u00e8me", "title": "La reconfiguration des soins de sant\u00e9 et la r\u00e9organisation du travail infirmier", "year": "2000"}, {"author": "Couturier, Yves", "authorid": 12812, "documentid": 66925, "entitiyid": 1, "journal": "Nouvelles pratiques sociales", "journalid": 24, "lat": 45.3766, "links": [1], "lng": -71.9255, "period": "Automne", "subtitle": "\u00c9chos et d\u00e9bats", "title": "La comp\u00e9tence contre l\u2019incomp\u00e9tence\u00a0? L\u2019erreur de cadre pour un faux d\u00e9bat", "year": "2004"}, {"author": "Bernier, Christiane", "authorid": 14119, "documentid": 67864, "entitiyid": 1147, "journal": "Reflets", "journalid": 27, "lat": 46.4668, "links": [1147, 1186], "lng": -80.9742, "period": "Printemps", "subtitle": "\u00c9ditorial", "title": "Le  genre  en contexte: pratiques sociales et repr\u00e9sentations", "year": "2003"}, {"author": "Lirette, Sylvie", "authorid": 1423, "documentid": 68087, "entitiyid": 11, "journal": "Reflets", "journalid": 27, "lat": 46.105, "links": [11], "lng": -64.7821, "period": "Automne", "subtitle": "Le dossier", "title": "Handicap et monde du travail\u00a0: pratiques et perceptions", "year": "2015"}, {"author": "Benoit, Monique", "authorid": 14607, "documentid": 68122, "entitiyid": 1147, "journal": "Reflets", "journalid": 27, "lat": 46.4668, "links": [1147, 4], "lng": -80.9742, "period": "Automne", "subtitle": "\u00c9ditorial", "title": "Les in\u00e9galit\u00e9s sociales de sant\u00e9 affectant les communaut\u00e9s francophones en situation minoritaire au Canada", "year": "2012"}, {"author": "Turgeon, Laurier", "authorid": 2687, "documentid": 74480, "entitiyid": 20, "journal": "Cap-aux-Diamants", "journalid": 29, "lat": 46.7817, "links": [20], "lng": -71.2747, "period": "Printemps", "subtitle": "", "title": "Des Basques dans le Saint-Laurent", "year": "1992"}, {"author": "Beauchemin, Jacques", "authorid": 19197, "documentid": 77122, "entitiyid": 97, "journal": "Cahiers de recherche sociologique", "journalid": 30, "lat": 45.5126, "links": [97], "lng": -73.5606, "period": "", "subtitle": "", "title": "Du providentialisme au n\u00e9olib\u00e9ralisme\u00a0: de Marsh \u00e0 Axworthy. Un nouveau discours de l\u00e9gitimation de la r\u00e9gulation sociale", "year": "1995"}, {"author": "Duchastel, Jules", "authorid": 12730, "documentid": 77581, "entitiyid": 97, "journal": "Cahiers de recherche sociologique", "journalid": 30, "lat": 45.5126, "links": [97, 295], "lng": -73.5606, "period": "", "subtitle": "Pr\u00e9sentation", "title": "\u00catre ou ne pas \u00eatre qu\u00e9b\u00e9cois", "year": "1995"}, {"author": "Labelle, Micheline", "authorid": 19267, "documentid": 77620, "entitiyid": 97, "journal": "Cahiers de recherche sociologique", "journalid": 30, "lat": 45.5126, "links": [97], "lng": -73.5606, "period": "", "subtitle": "", "title": "La question nationale dans le discours de leaders d\u2019associations ethniques de la r\u00e9gion de Montr\u00e9al", "year": "1993"}, {"author": "Di Sciullo, Anne-Marie", "authorid": 21098, "documentid": 79048, "entitiyid": 12, "journal": "Cahier de linguistique", "journalid": 32, "lat": 45.5126, "links": [12], "lng": -73.5606, "period": "", "subtitle": "", "title": "\u00c9tude de l\u2019interaction verbale chez des montr\u00e9alais d\u2019origine italienne", "year": "1976"}, {"author": "Sankoff, David", "authorid": 21103, "documentid": 79053, "entitiyid": 8, "journal": "Cahier de linguistique", "journalid": 32, "lat": 45.5056, "links": [8], "lng": -73.6138, "period": "", "subtitle": "", "title": "M\u00e9thodes d\u2019\u00e9chantillonnage et utilisation de l\u2019ordinateur dans l\u2019\u00e9tude de la variation grammaticale", "year": "1976"}, {"author": "S\u00e9vigny, Odile", "authorid": 3686, "documentid": 79537, "entitiyid": 12, "journal": "International Review of Community Development", "journalid": 33, "lat": 45.5126, "links": [12, 299], "lng": -73.5606, "period": "Automne", "subtitle": "III. Contr\u00f4les, ouvertures", "title": "L\u2019\u00e9valuation des soins holistiques", "year": "1990"}, {"author": "Meintel, Deirdre", "authorid": 21618, "documentid": 79586, "entitiyid": 12, "journal": "International Review of Community Development", "journalid": 33, "lat": 45.5126, "links": [12], "lng": -73.5606, "period": "Automne", "subtitle": "I.\u00a0La dynamique des syst\u00e8mes migratoires", "title": "La nouvelle double journ\u00e9e de travail des femmes immigrantes au Qu\u00e9bec", "year": "1985"}, {"author": "Lesemann, Fr\u00e9d\u00e9ric", "authorid": 19429, "documentid": 79766, "entitiyid": 8, "journal": "International Review of Community Development", "journalid": 33, "lat": 45.5056, "links": [8], "lng": -73.6138, "period": "Automne", "subtitle": "M\u00e9dias communautaires ou m\u00e9dias libres", "title": "Les radios communautaires au Qu\u00e9bec\u00a0: de la radio de quartier \u00e0 la radio  \u00ab\u00a0national-communautaire\u00a0\u00bb ", "year": "1981"}, {"author": "Contandriopoulos, A.", "authorid": 22921, "documentid": 81609, "entitiyid": 299, "journal": "L'Actualit\u00e9 \u00e9conomique", "journalid": 36, "lat": 45.5048, "links": [299], "lng": -73.5771, "period": "octobre", "subtitle": "Note", "title": "Un regroupement des comt\u00e9s de la province de Qu\u00e9bec en r\u00e9gions homog\u00e8nes", "year": "1974"}, {"author": "Khoury, Nabil", "authorid": 23111, "documentid": 81969, "entitiyid": 5, "journal": "L'Actualit\u00e9 \u00e9conomique", "journalid": 36, "lat": 46.7817, "links": [5], "lng": -71.2747, "period": "d\u00e9cembre", "subtitle": "Articles", "title": "Les d\u00e9terminants du co\u00fbt de la liquidit\u00e9 imm\u00e9diate sur le march\u00e9 canadien des options", "year": "1991"}, {"author": "Lefebvre, Louis", "authorid": 23157, "documentid": 82021, "entitiyid": 12, "journal": "L'Actualit\u00e9 \u00e9conomique", "journalid": 36, "lat": 45.5126, "links": [12], "lng": -73.5606, "period": "d\u00e9cembre", "subtitle": "Articles", "title": "L\u2019impact de la technologie informatique sur la main-d\u2019oeuvre dans les organisations", "year": "1986"}, {"author": "Contandriopoulos, A.", "authorid": 23347, "documentid": 82349, "entitiyid": 8, "journal": "L'Actualit\u00e9 \u00e9conomique", "journalid": 36, "lat": 45.5056, "links": [8], "lng": -73.6138, "period": "d\u00e9cembre", "subtitle": "Articles", "title": "La mobilit\u00e9 des patients et les mod\u00e8les de cr\u00e9ation de demande\u00a0: le cas du Qu\u00e9bec", "year": "1983"}, {"author": "Lacroix, Robert", "authorid": 23176, "documentid": 82501, "entitiyid": 8, "journal": "L'Actualit\u00e9 \u00e9conomique", "journalid": 36, "lat": 45.5056, "links": [8, 12], "lng": -73.6138, "period": "janvier", "subtitle": "Articles", "title": "Champ de sp\u00e9cialisation et revenu", "year": "1978"}, {"author": "Marceau, Nicolas", "authorid": 23639, "documentid": 82889, "entitiyid": 12, "journal": "L'Actualit\u00e9 \u00e9conomique", "journalid": 36, "lat": 45.5126, "links": [1222, 8, 12], "lng": -73.5606, "period": "mars", "subtitle": "", "title": "Introduction", "year": "1999"}, {"author": "Boyer, Marcel", "authorid": 22578, "documentid": 83252, "entitiyid": 8, "journal": "L'Actualit\u00e9 \u00e9conomique", "journalid": 36, "lat": 45.5056, "links": [8], "lng": -73.6138, "period": "janvier", "subtitle": "Articles", "title": "Mise \u00e0 jour de la matrice des coefficients de capital pour        l\u2019\u00e9conomie qu\u00e9b\u00e9coise", "year": "1981"}, {"author": "Faille, Jacques", "authorid": 23855, "documentid": 83305, "entitiyid": 5, "journal": "L'Actualit\u00e9 \u00e9conomique", "journalid": 36, "lat": 46.7817, "links": [5, 1], "lng": -71.2747, "period": "avril", "subtitle": "Articles", "title": "Le financement du r\u00e9gime de rentes du Qu\u00e9bec", "year": "1978"}, {"author": "Bouchard, G\u00e9rard", "authorid": 23872, "documentid": 83356, "entitiyid": 1135, "journal": "L'Actualit\u00e9 \u00e9conomique", "journalid": 36, "lat": 48.4203, "links": [1135], "lng": -71.0527, "period": "octobre", "subtitle": "Articles", "title": "Le classement des professions par secteurs d\u2019activit\u00e9\u00a0: aper\u00e7u critique et pr\u00e9sentation d\u2019une nouvelle grille", "year": "1979"}, {"author": "Nadeau, Richard", "authorid": 24321, "documentid": 84084, "entitiyid": 8, "journal": "Revue qu\u00e9b\u00e9coise de science politique", "journalid": 38, "lat": 45.5056, "links": [8], "lng": -73.6138, "period": "printemps", "subtitle": "Articles", "title": "L\u2019effondrement du parti progressiste-conservateur \u00e0 l\u2019\u00e9lection de 1993", "year": "1995"}, {"author": "Gilbert, Anne", "authorid": 25116, "documentid": 86486, "entitiyid": 4, "journal": "Francophonies d'Am\u00e9rique", "journalid": 40, "lat": 45.4231, "links": [4], "lng": -75.6831, "period": "Printemps", "subtitle": "", "title": "L\u2019ambition territoriale dans le dossier de la sant\u00e9 en fran\u00e7ais", "year": "2010"}, {"author": "Gauvin, France", "authorid": 25128, "documentid": 86488, "entitiyid": 5, "journal": "Francophonies d'Am\u00e9rique", "journalid": 40, "lat": 46.7817, "links": [5], "lng": -71.2747, "period": "Printemps", "subtitle": "", "title": "D\u00e9fis li\u00e9s \u00e0 la culture dans la r\u00e9ponse aux besoins des familles francophones de l\u2019Alberta", "year": "2010"}, {"author": "Godin, Jeanne", "authorid": 25251, "documentid": 86635, "entitiyid": 11, "journal": "Francophonies d'Am\u00e9rique", "journalid": 40, "lat": 46.105, "links": [5, 4], "lng": -64.7821, "period": "Automne", "subtitle": "Partie I\u00a0: d\u00e9fis de l\u2019\u00e9ducation francophone", "title": "Le leadership \u00e9ducationnel en milieu francophone minoritaire\u00a0: un regard in\u00e9dit sur une r\u00e9alit\u00e9 m\u00e9connue", "year": "2004"}, {"author": "Cormier, Marianne", "authorid": 25062, "documentid": 86643, "entitiyid": 11, "journal": "Francophonies d'Am\u00e9rique", "journalid": 40, "lat": 46.105, "links": [11], "lng": -64.7821, "period": "Automne", "subtitle": "Partie I\u00a0: d\u00e9fis de l\u2019\u00e9ducation francophone", "title": "Un mod\u00e8le p\u00e9dagogique pour am\u00e9liorer l\u2019apprentissage des sciences en milieu linguistique minoritaire", "year": "2004"}, {"author": "Michaud, Jacques", "authorid": 25274, "documentid": 86653, "entitiyid": 1147, "journal": "Francophonies d'Am\u00e9rique", "journalid": 40, "lat": 46.4668, "links": [1147], "lng": -80.9742, "period": "printemps", "subtitle": "\u00a0", "title": "D\u00e9crochage, raccrochage et r\u00e9tention scolaires selon les Jeunes franco-ontariens", "year": "2008"}, {"author": "Gilbert, Anne", "authorid": 25116, "documentid": 86844, "entitiyid": 4, "journal": "Francophonies d'Am\u00e9rique", "journalid": 40, "lat": 45.4231, "links": [4], "lng": -75.6831, "period": "Printemps", "subtitle": "", "title": "Le Droit  et la r\u00e9novation de la Basse-Ville d\u2019Ottawa\u00a0: les balbutiements d\u2019un journalisme engag\u00e9 dans le dossier de l\u2019am\u00e9nagement urbain", "year": "2013"}, {"author": "Saint-Germain, Michel", "authorid": 25509, "documentid": 86953, "entitiyid": 4, "journal": "Francophonies d'Am\u00e9rique", "journalid": 40, "lat": 45.4231, "links": [4, 5], "lng": -75.6831, "period": "Printemps", "subtitle": "", "title": "Les relations entre les \u00e9coles fran\u00e7aises hors Qu\u00e9bec et leur communaut\u00e9", "year": "2007"}, {"author": "Berthelot, Sylvie", "authorid": 25512, "documentid": 86957, "entitiyid": 11, "journal": "Francophonies d'Am\u00e9rique", "journalid": 40, "lat": 46.105, "links": [11, 1147], "lng": -64.7821, "period": "Printemps", "subtitle": "", "title": "L\u2019entrepreneuriat\u00a0: une solution \u00e0 l\u2019exode des jeunes du Canada atlantique?", "year": "2007"}, {"author": "Cardinal, Linda", "authorid": 14082, "documentid": 87038, "entitiyid": 4, "journal": "Francophonies d'Am\u00e9rique", "journalid": 40, "lat": 45.4231, "links": [4], "lng": -75.6831, "period": "Automne", "subtitle": "", "title": "Pr\u00e9sentation", "year": "2012"}, {"author": "Poirier, Donald", "authorid": 25612, "documentid": 87112, "entitiyid": 11, "journal": "Francophonies d'Am\u00e9rique", "journalid": 40, "lat": 46.105, "links": [11], "lng": -64.7821, "period": "Automne", "subtitle": "Communications", "title": "Rapports interg\u00e9n\u00e9rationnels en mati\u00e8re religieuse entre jeunes adultes et a\u00een\u00e9s francophones et anglophones du Grand Moncton\u00a0: \u00e9tude exploratoire", "year": "2003"}, {"author": "Savard, S\u00e9bastien", "authorid": 25667, "documentid": 87193, "entitiyid": 4, "journal": "Francophonies d'Am\u00e9rique", "journalid": 40, "lat": 45.4231, "links": [4], "lng": -75.6831, "period": "Automne", "subtitle": "", "title": "Les professionnels de la sant\u00e9 et des services sociaux intervenant aupr\u00e8s des francophones minoritaires\u00a0: l\u2019enjeu du capital social", "year": "2013"}, {"author": "Duchesne, Claire", "authorid": 27183, "documentid": 89005, "entitiyid": 4, "journal": "Revue des sciences de l'\u00e9ducation", "journalid": 44, "lat": 45.4231, "links": [4, 243], "lng": -75.6831, "period": "", "subtitle": "", "title": "La raison d\u2019\u00eatre de l\u2019engagement professionnel chez des enseignantes du primaire selon une perspective existentielle", "year": "2005"}, {"author": "Bowen, Fran\u00e7ois", "authorid": 28059, "documentid": 89860, "entitiyid": 8, "journal": "Revue des sciences de l'\u00e9ducation", "journalid": 44, "lat": 45.5056, "links": [8], "lng": -73.6138, "period": "", "subtitle": "Articles", "title": "Mod\u00e8le des d\u00e9terminants des buts de ma\u00eetrise chez des \u00e9l\u00e8ves du primaire", "year": "2004"}, {"author": "Blanchard, C\u00e9line", "authorid": 28065, "documentid": 89865, "entitiyid": 4, "journal": "Revue des sciences de l'\u00e9ducation", "journalid": 44, "lat": 45.4231, "links": [4], "lng": -75.6831, "period": "", "subtitle": "Articles", "title": "R\u00f4le de l\u2019autod\u00e9termination et des aptitudes scolaires dans la pr\u00e9diction des absences scolaires et l\u2019intention de d\u00e9crocher", "year": "2004"}, {"author": "Denoncourt, Isabelle", "authorid": 28073, "documentid": 89869, "entitiyid": 12, "journal": "Revue des sciences de l'\u00e9ducation", "journalid": 44, "lat": 45.5126, "links": [12], "lng": -73.5606, "period": "", "subtitle": "Articles", "title": "Relations entre les facteurs du profil motivationnel d\u2019\u00e9l\u00e8ves de sixi\u00e8me ann\u00e9e du primaire et leurs anticipations envers le secondaire", "year": "2004"}, {"author": "Viau, Rolland", "authorid": 28080, "documentid": 89872, "entitiyid": 1, "journal": "Revue des sciences de l'\u00e9ducation", "journalid": 44, "lat": 45.3766, "links": [1], "lng": -71.9255, "period": "", "subtitle": "Articles", "title": "La motivation des \u00e9tudiants en formation des ma\u00eetres \u00e0 l\u2019\u00e9gard d\u2019activit\u00e9s p\u00e9dagogiques innovatrices", "year": "2004"}, {"author": "Chouinard, Roch", "authorid": 28060, "documentid": 89878, "entitiyid": 8, "journal": "Revue des sciences de l'\u00e9ducation", "journalid": 44, "lat": 45.5056, "links": [8], "lng": -73.6138, "period": "", "subtitle": "Articles", "title": "Caract\u00e9ristiques motivationnelles des gar\u00e7ons du secondaire en difficult\u00e9 d\u2019apprentissage ou en trouble de la conduite", "year": "2004"}, {"author": "Lepage, Caroline", "authorid": 28211, "documentid": 89989, "entitiyid": 1, "journal": "Revue des sciences de l'\u00e9ducation", "journalid": 44, "lat": 45.3766, "links": [1], "lng": -71.9255, "period": "", "subtitle": "Hors th\u00e8me", "title": "L\u2019intimidation et la d\u00e9pression \u00e0 l\u2019\u00e9cole\u00a0: analyse critique des \u00e9crits", "year": "2006"}, {"author": "Par\u00e9, Claude", "authorid": 28333, "documentid": 90103, "entitiyid": 1200, "journal": "Revue des sciences de l'\u00e9ducation", "journalid": 44, "lat": 46.3472, "links": [1200], "lng": -72.5769, "period": "", "subtitle": "", "title": "L\u2019analyse du temps de pratique active chez des \u00e9l\u00e8ves du secteur adaptation scolaire", "year": "1983"}, {"author": "Berthelot, Sylvie", "authorid": 25512, "documentid": 91015, "entitiyid": 11, "journal": "Revue de l'Universit\u00e9 de Moncton", "journalid": 45, "lat": 46.105, "links": [11], "lng": -64.7821, "period": "", "subtitle": "Note de recherche", "title": "Syst\u00e8mes comptables et prise de d\u00e9cisions\u00a0: une \u00e9tude empirique aupr\u00e8s des petites et moyennes entreprises du Nouveau-Brunswick 1", "year": "2004"}, {"author": "Bigras, Nathalie", "authorid": 29177, "documentid": 91038, "entitiyid": 12, "journal": "Revue de l'Universit\u00e9 de Moncton", "journalid": 45, "lat": 45.5126, "links": [12], "lng": -73.5606, "period": "", "subtitle": "Articles", "title": "Exp\u00e9rience cumul\u00e9e de garde, caract\u00e9ristiques de l\u2019environnement social et d\u00e9veloppement de nourrissons qui fr\u00e9quentent une garderie au cours de leur premi\u00e8re ann\u00e9e de vie", "year": "2004"}, {"author": "Porelle, Manon", "authorid": 29180, "documentid": 91039, "entitiyid": 11, "journal": "Revue de l'Universit\u00e9 de Moncton", "journalid": 45, "lat": 46.105, "links": [11], "lng": -64.7821, "period": "", "subtitle": "Notes de recherche", "title": "Effets \u00e0 moyen terme du programme d\u2019intervention pr\u00e9coce du Moncton Headstart", "year": "2004"}, {"author": "Cao, Huhua", "authorid": 29186, "documentid": 91040, "entitiyid": 4, "journal": "Revue de l'Universit\u00e9 de Moncton", "journalid": 45, "lat": 45.4231, "links": [4, 11], "lng": -75.6831, "period": "", "subtitle": "Notes de recherche", "title": "Dynamique de l\u2019implantation des services de garde \u00e0 l\u2019enfance dans la r\u00e9gion urbaine de Moncton, 1990-2001", "year": "2004"}, {"author": "Dionne, Anne-Marie", "authorid": 27661, "documentid": 91043, "entitiyid": 4, "journal": "Revue de l'Universit\u00e9 de Moncton", "journalid": 45, "lat": 45.4231, "links": [4, 5], "lng": -75.6831, "period": "", "subtitle": "Articles", "title": "Caract\u00e9ristiques et perception de la litt\u00e9ratie chez les parents ayant de faibles comp\u00e9tences en lecture et en \u00e9criture", "year": "2004"}, {"author": "Lavall\u00e9e, Marguerite", "authorid": 29193, "documentid": 91045, "entitiyid": 5, "journal": "Revue de l'Universit\u00e9 de Moncton", "journalid": 45, "lat": 46.7817, "links": [5, 12], "lng": -71.2747, "period": "", "subtitle": "Articles", "title": "Les repr\u00e9sentations sociales de l\u2019alimentation\u00a0: convergences et divergences entre enfants, parents et enseignants", "year": "2004"}, {"author": "Chouinard, Omer", "authorid": 25190, "documentid": 91072, "entitiyid": 11, "journal": "Revue de l\u2019Universit\u00e9 de Moncton", "journalid": 46, "lat": 46.105, "links": [11], "lng": -64.7821, "period": "", "subtitle": "Articles", "title": "Contribution de la coop\u00e9ration, de l\u2019\u00e9conomie sociale et des entreprises collectives dans le d\u00e9veloppement territorial des \u00celes Lam\u00e8que et Miscou en Acadie du Nouveau-Brunswick 1", "year": "2010"}, {"author": "Robichaud-Ekstrand, Sylvie", "authorid": 29279, "documentid": 91127, "entitiyid": 11, "journal": "Revue de l'Universit\u00e9 de Moncton", "journalid": 45, "lat": 46.105, "links": [11], "lng": -64.7821, "period": "", "subtitle": "Notes de recherche", "title": "Les besoins d\u2019information et de soutien de personnes porteuses d\u2019un d\u00e9fibrillateur \u00e0 synchronisation automatique implantable suite au syndrome de mort subite", "year": "2008"}, {"author": "Rousseau, Nadia", "authorid": 29302, "documentid": 91143, "entitiyid": 13, "journal": "Revue de l\u2019Universit\u00e9 de Moncton", "journalid": 46, "lat": 46.3472, "links": [13], "lng": -72.5769, "period": "", "subtitle": "Articles hors th\u00e8me", "title": "Perceptions des \u00e9l\u00e8ves du primaire \u00e0 l\u2019\u00e9gard des devoirs et des le\u00e7ons", "year": "2011"}, {"author": "Harrison, Suzanne", "authorid": 25306, "documentid": 91157, "entitiyid": 11, "journal": "Revue de l\u2019Universit\u00e9 de Moncton", "journalid": 46, "lat": 46.105, "links": [11], "lng": -64.7821, "period": "", "subtitle": "Notes de recherche", "title": "R\u00e9duire les facteurs de risques associ\u00e9s aux maladies cardiovasculaires chez les membres du personnel de l\u2019Universit\u00e9 de Moncton", "year": "2012"}, {"author": "Charron, Danielle", "authorid": 29287, "documentid": 91160, "entitiyid": 11, "journal": "Revue de l\u2019Universit\u00e9 de Moncton", "journalid": 46, "lat": 46.105, "links": [11], "lng": -64.7821, "period": "", "subtitle": "Articles", "title": "Le \u00ab prendre soin\u00a0\u00bb de la sant\u00e9 (PSS)\u00a0: une conception transdisciplinaire et inclusive de la pratique soignante et\u00a0son int\u00e9r\u00eat pour am\u00e9liorer les r\u00e9sultats de sant\u00e9 des jeunes aux prises avec le diab\u00e8te", "year": "2012"}, {"author": "Iancu, Horia-Daniel", "authorid": 29326, "documentid": 91161, "entitiyid": 11, "journal": "Revue de l\u2019Universit\u00e9 de Moncton", "journalid": 46, "lat": 46.105, "links": [11], "lng": -64.7821, "period": "", "subtitle": "Articles", "title": "\u00c9valuation des effets d\u2019un cours d\u2019\u00e9ducation physique au quotidien sur le rendement acad\u00e9mique et la condition physique des \u00e9l\u00e8ves du niveau primaire", "year": "2012"}, {"author": "Bergeron, Cindy", "authorid": 29339, "documentid": 91163, "entitiyid": 4, "journal": "Revue de l\u2019Universit\u00e9 de Moncton", "journalid": 46, "lat": 45.4231, "links": [4], "lng": -75.6831, "period": "", "subtitle": "Articles", "title": "La r\u00e9adaptation cardiaque en contexte de d\u00e9favorisation mat\u00e9rielle et sociale 1", "year": "2012"}, {"author": "Parent, Andr\u00e9-Anne", "authorid": 29341, "documentid": 91164, "entitiyid": 5, "journal": "Revue de l\u2019Universit\u00e9 de Moncton", "journalid": 46, "lat": 46.7817, "links": [5], "lng": -71.2747, "period": "", "subtitle": "Articles", "title": "Entre sant\u00e9 publique et organisation communautaire\u00a0: points de convergence et de divergence autour du d\u00e9veloppement des communaut\u00e9s\u00a0au Qu\u00e9bec", "year": "2012"}, {"author": "Deslandes, Rollande", "authorid": 28347, "documentid": 91166, "entitiyid": 13, "journal": "Revue de l\u2019Universit\u00e9 de Moncton", "journalid": 46, "lat": 46.3472, "links": [13], "lng": -72.5769, "period": "", "subtitle": "Articles", "title": "Regard sur le processus d\u2019adaptation d\u2019immigrants adultes de la Mauricie sous l\u2019angle des habitudes de vie et des comp\u00e9tences de la vie courante 1", "year": "2012"}, {"author": "Chouinard, Omer", "authorid": 25190, "documentid": 91172, "entitiyid": 11, "journal": "Revue de l\u2019Universit\u00e9 de Moncton", "journalid": 46, "lat": 46.105, "links": [11], "lng": -64.7821, "period": "", "subtitle": "Articles", "title": "Les associations de bassin versant du littoral acadien\u00a0: un mod\u00e8le d\u2019acteurs valorisant les approches \u00e9cosyst\u00e9miques et d\u2019\u00e9conomie sociale", "year": "2009"}, {"author": "Chouinard, Omer", "authorid": 25190, "documentid": 91174, "entitiyid": 11, "journal": "Revue de l\u2019Universit\u00e9 de Moncton", "journalid": 46, "lat": 46.105, "links": [11], "lng": -64.7821, "period": "", "subtitle": "", "title": "Introduction", "year": "2009"}, {"author": "Turcotte, Catherine", "authorid": 27239, "documentid": 93768, "entitiyid": 12, "journal": "McGill Journal of Education", "journalid": 54, "lat": 45.5126, "links": [12], "lng": -73.5606, "period": "Fall", "subtitle": "Articles", "title": "Quand chercheuses et intervenantes scolaires s\u2019unissent pour r\u00e9pondre aux besoins des        jeunes lecteurs en difficult\u00e9 de mileu d\u00e9favoris\u00e9", "year": "2010"}, {"author": "Gohier, Christiane", "authorid": 27855, "documentid": 93771, "entitiyid": 12, "journal": "McGill Journal of Education", "journalid": 54, "lat": 45.5126, "links": [12, 1], "lng": -73.5606, "period": "Fall", "subtitle": "Articles", "title": "Les pr\u00e9occupations \u00e9thiques des enseignants de l\u2019ordre coll\u00e9gial\u00a0: une enqu\u00eate en ligne", "year": "2010"}, {"author": "Kanout\u00e9, Fasal", "authorid": 27911, "documentid": 93774, "entitiyid": 8, "journal": "McGill Journal of Education", "journalid": 54, "lat": 45.5056, "links": [8], "lng": -73.6138, "period": "Fall", "subtitle": "Articles", "title": "Les relations \u00e9cole-organisme communautaire en contexte de pluriethnicit\u00e9 et de d\u00e9favorisation", "year": "2011"}, {"author": "Proulx, Marie-\u00c8ve", "authorid": 32145, "documentid": 93794, "entitiyid": 5, "journal": "McGill Journal of Education", "journalid": 54, "lat": 46.7817, "links": [5], "lng": -71.2747, "period": "hiver", "subtitle": "Articles", "title": "\u00c9volution des styles d\u2019intervention des parents en        situation de lecture avec leur enfant", "year": "2008"}, {"author": "Larouche, Marie-Claude", "authorid": 32195, "documentid": 93831, "entitiyid": 13, "journal": "McGill Journal of Education", "journalid": 54, "lat": 46.3472, "links": [13, 12], "lng": -72.5769, "period": "Spring", "subtitle": "Articles", "title": "Ressources mus\u00e9ales, TIC et univers social au primaire : r\u00e9sultats d\u2019une recherche collaborative", "year": "2012"}, {"author": "Myre-Bisaillon, Julie", "authorid": 29047, "documentid": 93836, "entitiyid": 1, "journal": "McGill Journal of Education", "journalid": 54, "lat": 45.3766, "links": [1], "lng": -71.9255, "period": "Spring", "subtitle": "Articles", "title": "Stimuler l\u2019\u00e9veil \u00e0 la lecture et \u00e0 l\u2019\u00e9criture des enfants d\u2019\u00e2ge pr\u00e9scolaire\u00a0: r\u00f4le des biblioth\u00e8ques publiques dans les communaut\u00e9s d\u00e9favoris\u00e9es", "year": "2014"}, {"author": "Tremblay, Nicole", "authorid": 32210, "documentid": 93840, "entitiyid": 391, "journal": "McGill Journal of Education", "journalid": 54, "lat": 48.4203, "links": [391, 1], "lng": -71.0527, "period": "Spring", "subtitle": "Articles", "title": "Les d\u00e9fis de la formation initiale des enseignants du primaire\nen milieu \u00e0 risque", "year": "2014"}, {"author": "Archambault, Jean", "authorid": 27930, "documentid": 93846, "entitiyid": 8, "journal": "McGill Journal of Education", "journalid": 54, "lat": 45.5056, "links": [8], "lng": -73.6138, "period": "Spring", "subtitle": "Articles", "title": "Diriger une \u00e9cole en milieu d\u00e9favoris\u00e9\u00a0: observation des pratiques de travail de directions d\u2019\u00e9cole primaire de la r\u00e9gion de Montr\u00e9al", "year": "2014"}, {"author": "Hamel, Christine", "authorid": 27067, "documentid": 93856, "entitiyid": 5, "journal": "McGill Journal of Education", "journalid": 54, "lat": 46.7817, "links": [5, 243], "lng": -71.2747, "period": "Winter", "subtitle": "Articles / Les articles", "title": "Improving Students\u2019 Understanding and Explanation Skills Through the Use of a Knowledge Building Forum", "year": "2015"}, {"author": "Chehab, Yasmine", "authorid": 32267, "documentid": 93873, "entitiyid": 8, "journal": "McGill Journal of Education", "journalid": 54, "lat": 45.5056, "links": [8], "lng": -73.6138, "period": "Winter", "subtitle": "Articles", "title": "De l\u2019\u00e9cole au cyberespace, le ph\u00e9nom\u00e8ne de l\u2019intimidation en ligne chez les jeunes\u00a0:         \u00e9tat de la recherche et de l\u2019intervention", "year": "2016"}, {"author": "Moisan, Sabrina", "authorid": 32305, "documentid": 93890, "entitiyid": 1, "journal": "McGill Journal of Education", "journalid": 54, "lat": 45.3766, "links": [1], "lng": -71.9255, "period": "Spring", "subtitle": "Articles / Les articles", "title": "Holocaust Education in Quebec: Teachers\u2019 Positioning and Practices", "year": "2015"}, {"author": "Gohier, Christiane", "authorid": 27855, "documentid": 93915, "entitiyid": 12, "journal": "McGill Journal of Education", "journalid": 54, "lat": 45.5126, "links": [12, 1], "lng": -73.5606, "period": "Spring", "subtitle": "Articles", "title": "La r\u00e9flexion \u00e9thique chez des enseignants de l\u2019ordre coll\u00e9gial\u00a0: ce que la recherche        nous apprend sur les types de normativit\u00e9 en jeu dans la dynamique r\u00e9flexive", "year": "2016"}, {"author": "Leroux, Myl\u00e8ne", "authorid": 32353, "documentid": 93916, "entitiyid": 243, "journal": "McGill Journal of Education", "journalid": 54, "lat": 45.4225, "links": [13, 1, 243, 4, 12], "lng": -75.7384, "period": "Spring", "subtitle": "Articles", "title": "Similarities and Differences in Risk and Protective Factors in Teacher Induction for Prospective Elementary and Physical and Health Education Teachers", "year": "2016"}, {"author": "Moldoveanu, Mirela", "authorid": 32359, "documentid": 93920, "entitiyid": 12, "journal": "McGill Journal of Education", "journalid": 54, "lat": 45.5126, "links": [12], "lng": -73.5606, "period": "Spring", "subtitle": "Articles", "title": "La diff\u00e9renciation p\u00e9dagogique\u00a0: repr\u00e9sentations et pratiques rapport\u00e9es d\u2019enseignantes du primaire", "year": "2016"}, {"author": "B\u00e9land, S\u00e9bastien", "authorid": 27432, "documentid": 93926, "entitiyid": 8, "journal": "McGill Journal of Education", "journalid": 54, "lat": 45.5056, "links": [8, 4], "lng": -73.6138, "period": "Spring", "subtitle": "The MJE Forum", "title": "Les dix commandements du nouvel  homo statisticus", "year": "2016"}, {"author": "Bolduc, Jonathan", "authorid": 28997, "documentid": 93967, "entitiyid": 4, "journal": "McGill Journal of Education", "journalid": 54, "lat": 45.4231, "links": [4], "lng": -75.6831, "period": "printemps", "subtitle": "Articles", "title": "Les effets de la musique aupr\u00e8s d\u2019\u00e9l\u00e8ves du d\u00e9but du        primaire pr\u00e9sentant des difficult\u00e9s d\u2019apprentissage en lecture et en \u00e9criture\u00a0: recension        des \u00e9crits", "year": "2009"}, {"author": "Rousseau, Nadia", "authorid": 29302, "documentid": 93968, "entitiyid": 13, "journal": "McGill Journal of Education", "journalid": 54, "lat": 46.3472, "links": [13], "lng": -72.5769, "period": "printemps", "subtitle": "Articles", "title": "La relation de confiance ma\u00eetre-\u00e9l\u00e8ve\u00a0: perception d\u2019\u00e9l\u00e8ves        ayant des difficult\u00e9s scolaires", "year": "2009"}, {"author": "Balslev, Kristine", "authorid": 32427, "documentid": 93976, "entitiyid": 314, "journal": "McGill Journal of Education", "journalid": 54, "lat": 46.1994, "links": [314], "lng": 6.14512, "period": "Winter", "subtitle": "Articles", "title": "A Discursive Approach to Recognition in the Practicum", "year": "2011"}, {"author": "Maubant, Philippe", "authorid": 27237, "documentid": 93979, "entitiyid": 1, "journal": "McGill Journal of Education", "journalid": 54, "lat": 45.3766, "links": [1], "lng": -71.9255, "period": "Winter", "subtitle": "Articles", "title": "History and Perspectives of Adult Education and Professional Teacher Education: Between complicity, distance, and recognition", "year": "2011"}, {"author": "Gaudreau, Nancy", "authorid": 32443, "documentid": 93988, "entitiyid": 5, "journal": "McGill Journal of Education", "journalid": 54, "lat": 46.7817, "links": [5], "lng": -71.2747, "period": "Spring", "subtitle": "Articles", "title": "Classroom Behaviour Management: The effects of in-service training on elementary teachers\u2019 self-efficacy beliefs", "year": "2013"}, {"author": "Niyubahwe, Aline", "authorid": 32467, "documentid": 93999, "entitiyid": 1, "journal": "McGill Journal of Education", "journalid": 54, "lat": 45.3766, "links": [1], "lng": -71.9255, "period": "Spring", "subtitle": "Articles", "title": "Professional Integration of Immigrant Teachers in the School System: A literature        review", "year": "2013"}, {"author": "Kamanzi, Pierre", "authorid": 32469, "documentid": 94001, "entitiyid": 12, "journal": "McGill Journal of Education", "journalid": 54, "lat": 45.5126, "links": [5, 8, 12], "lng": -73.5606, "period": "Winter", "subtitle": "Articles", "title": "L\u2019acc\u00e8s \u00e0 un emploi permanent apr\u00e8s l\u2019obtention d\u2019un dipl\u00f4me d\u2019\u00e9tudes postsecondaires        au Canada\u00a0: le capital social importe-t-il\u00a0?", "year": "2010"}, {"author": "Martel, Jacinthe", "authorid": 35250, "documentid": 101831, "entitiyid": 12, "journal": "Tangence", "journalid": 61, "lat": 45.5126, "links": [12, 13], "lng": -73.5606, "period": "Hiver", "subtitle": "Chronique", "title": "Les archives du vent (3)", "year": "2011"}, {"author": "Martel, Jacinthe", "authorid": 35250, "documentid": 101854, "entitiyid": 12, "journal": "Tangence", "journalid": 61, "lat": 45.5126, "links": [12], "lng": -73.5606, "period": "automne", "subtitle": "Chronique", "title": "Les archives du vent (2)", "year": "2009"}, {"author": "Martel, Jacinthe", "authorid": 35250, "documentid": 102026, "entitiyid": 12, "journal": "Tangence", "journalid": 61, "lat": 45.5126, "links": [12, 13], "lng": -73.5606, "period": "\u00e9t\u00e9", "subtitle": "Chronique", "title": "Les archives du vent", "year": "2008"}, {"author": "Marchand, Isabelle", "authorid": 35950, "documentid": 102734, "entitiyid": 12, "journal": "Enfances, Familles, G\u00e9n\u00e9rations", "journalid": 63, "lat": 45.5126, "links": [12], "lng": -73.5606, "period": "automne", "subtitle": "Articles th\u00e9matiques", "title": "Vieillesses d\u2019aujourd\u2019hui\u00a0: les femmes a\u00een\u00e9es et leurs rapports aux temps", "year": "2010"}, {"author": "Normand, Ariane", "authorid": 36150, "documentid": 102838, "entitiyid": 13, "journal": "Enfances, Familles, G\u00e9n\u00e9rations", "journalid": 63, "lat": 46.3472, "links": [13, 243], "lng": -72.5769, "period": "automne", "subtitle": "Section 2", "title": "La perception de l\u2019identit\u00e9 paternelle en p\u00e9riode postnatale selon le type de suivi pr\u00e9natal", "year": "2009"}, {"author": "Baker, Marleen", "authorid": 36155, "documentid": 102841, "entitiyid": 13, "journal": "Enfances, Familles, G\u00e9n\u00e9rations", "journalid": 63, "lat": 46.3472, "links": [13, 243], "lng": -72.5769, "period": "automne", "subtitle": "Section 2", "title": "Entre la sage-femme et le p\u00e8re, des espaces coconstruits\u00a0: \u00e9tude exploratoire", "year": "2009"}, {"author": "Besnard, Th\u00e9r\u00e8se", "authorid": 628, "documentid": 102868, "entitiyid": 1, "journal": "Enfances, Familles, G\u00e9n\u00e9rations", "journalid": 63, "lat": 45.3766, "links": [1, 12], "lng": -71.9255, "period": "printemps", "subtitle": "", "title": "Liens diff\u00e9renci\u00e9s entre les pratiques \u00e9ducatives des p\u00e8res et des m\u00e8res et la pr\u00e9sence de difficult\u00e9s de comportement chez les gar\u00e7ons et les filles d\u2019\u00e2ge pr\u00e9scolaire", "year": "2009"}, {"author": "Cyr-Villeneuve, Catherine", "authorid": 36236, "documentid": 102895, "entitiyid": 8, "journal": "Enfances, Familles, G\u00e9n\u00e9rations", "journalid": 63, "lat": 45.5056, "links": [8], "lng": -73.6138, "period": "automne", "subtitle": "Hors th\u00e8me", "title": "Relations entre l\u2019\u00e9tat psychologique de la m\u00e8re et l\u2019\u00e9tat psychologique de l\u2019enfant en contexte de s\u00e9paration conjugale", "year": "2007"}, {"author": "Comeau, Judith", "authorid": 36358, "documentid": 103051, "entitiyid": 8, "journal": "Qu\u00e9bec fran\u00e7ais", "journalid": 64, "lat": 45.5056, "links": [8, 5], "lng": -73.6138, "period": "D\u00e9cembre", "subtitle": "Francophonie", "title": "Cerisy 1979", "year": "1979"}, {"author": "Goupil, Georgette", "authorid": 32122, "documentid": 106563, "entitiyid": 12, "journal": "Qu\u00e9bec fran\u00e7ais", "journalid": 64, "lat": 45.5126, "links": [12], "lng": -73.5606, "period": "Hiver", "subtitle": "Hors dossier", "title": "Perceptions d\u2019orthop\u00e9dagogues sur les causes des difficult\u00e9s d\u2019apprentissage", "year": "1995"}, {"author": "Lacasse, Germain", "authorid": 10459, "documentid": 107861, "entitiyid": 8, "journal": "Globe", "journalid": 65, "lat": 45.5056, "links": [8], "lng": -73.6138, "period": "", "subtitle": "", "title": "L\u2019objet cin\u00e9ma entre culture populaire et culture savante 1", "year": "2012"}, {"author": "Beaudoin, Carole", "authorid": 39020, "documentid": 107892, "entitiyid": 5, "journal": "Globe", "journalid": 65, "lat": 46.7817, "links": [5], "lng": -71.2747, "period": "", "subtitle": "", "title": "Les interventions du minist\u00e8re de l\u2019Environnement du Qu\u00e9bec. Un premier inventaire", "year": "2006"}, {"author": "Blais, Martin", "authorid": 39106, "documentid": 108252, "entitiyid": 12, "journal": "Globe", "journalid": 65, "lat": 45.5126, "links": [12], "lng": -73.5606, "period": "", "subtitle": "", "title": "La sexualit\u00e9 des jeunes Qu\u00e9b\u00e9cois et Canadiens. Regard critique sur le concept d\u2019\u00ab\u00a0hypersexualisation\u00a0\u00bb ", "year": "2009"}, {"author": "Letscher, Sylvain", "authorid": 39311, "documentid": 108261, "entitiyid": 13, "journal": "Globe", "journalid": 65, "lat": 46.3472, "links": [13], "lng": -72.5769, "period": "", "subtitle": "", "title": "La reconnaissance de la langue des signes qu\u00e9b\u00e9coise (LSQ) pour le d\u00e9veloppement de la litt\u00e9ratie et de la participation sociale de la personne sourde au Qu\u00e9bec", "year": "2013"}, {"author": "Samson, Annie", "authorid": 40224, "documentid": 110720, "entitiyid": 5, "journal": "Cahiers de la recherche en \u00e9ducation", "journalid": 67, "lat": 46.7817, "links": [5], "lng": -71.2747, "period": "", "subtitle": "", "title": "La relation entre le style parental de la m\u00e8re et ses interventions en situation de lecture avec son enfant", "year": "1999"}, {"author": "Leclerc, Chantal", "authorid": 40241, "documentid": 110736, "entitiyid": 5, "journal": "Cahiers de la recherche en \u00e9ducation", "journalid": 67, "lat": 46.7817, "links": [5], "lng": -71.2747, "period": "", "subtitle": "", "title": "Espoirs et impasses des pratiques de groupe d\u2019insertion \u00e0 l\u2019emploi", "year": "1996"}, {"author": "Desrosiers, Pauline", "authorid": 40257, "documentid": 110746, "entitiyid": 5, "journal": "Cahiers de la recherche en \u00e9ducation", "journalid": 67, "lat": 46.7817, "links": [5, 12], "lng": -71.2747, "period": "", "subtitle": "", "title": "La recherche collaborative\u00a0: impact passager ou durable\u00a0?", "year": "1999"}, {"author": "Samson, Annie", "authorid": 40224, "documentid": 110778, "entitiyid": 5, "journal": "Cahiers de la recherche en \u00e9ducation", "journalid": 67, "lat": 46.7817, "links": [5], "lng": -71.2747, "period": "", "subtitle": "", "title": "La relation entre le style parental de la m\u00e8re et ses interventions en situation de lecture", "year": "2000"}, {"author": "Spain, Armelle", "authorid": 40291, "documentid": 110783, "entitiyid": 5, "journal": "Cahiers de la recherche en \u00e9ducation", "journalid": 67, "lat": 46.7817, "links": [5], "lng": -71.2747, "period": "", "subtitle": "", "title": "La vie professionnelle de femmes de 45 ans et plus\u00a0: un tremplin pour apprendre", "year": "2000"}, {"author": "Aubry, Nathalie", "authorid": 40294, "documentid": 110784, "entitiyid": 5, "journal": "Cahiers de la recherche en \u00e9ducation", "journalid": 67, "lat": 46.7817, "links": [5], "lng": -71.2747, "period": "", "subtitle": "", "title": "Les interventions des parents en lecture et l\u2019autonomie des lecteurs d\u00e9butants", "year": "2000"}, {"author": "Gauthier, Clermont", "authorid": 40301, "documentid": 110798, "entitiyid": 5, "journal": "Cahiers de la recherche en \u00e9ducation", "journalid": 67, "lat": 46.7817, "links": [5], "lng": -71.2747, "period": "", "subtitle": "", "title": "La r\u00e9vision des programmes et leur impact sur la formation et le r\u00f4le des enseignants au Qu\u00e9bec de 1861 \u00e0 nos jours", "year": "1994"}, {"author": "Brun, Jean", "authorid": 40306, "documentid": 110800, "entitiyid": 314, "journal": "Cahiers de la recherche en \u00e9ducation", "journalid": 67, "lat": 46.1994, "links": [314, 8, 1], "lng": 6.14512, "period": "", "subtitle": "", "title": "La notion de sch\u00e8me dans l\u2019interpr\u00e9tation des erreurs des \u00e9l\u00e8ves \u00e0 des algorithmes de calcul \u00e9crit", "year": "1994"}, {"author": "Leclerc, Chantal", "authorid": 40241, "documentid": 110806, "entitiyid": 5, "journal": "Cahiers de la recherche en \u00e9ducation", "journalid": 67, "lat": 46.7817, "links": [5], "lng": -71.2747, "period": "", "subtitle": "", "title": "L\u2019intervention dans les groupes de d\u00e9veloppement de l\u2019employabilit\u00e9\u00a0: entre ce qu\u2019on en dit et ce qui s\u2019y fait", "year": "1997"}, {"author": "Beaudoin, Isabelle", "authorid": 40319, "documentid": 110807, "entitiyid": 5, "journal": "Cahiers de la recherche en \u00e9ducation", "journalid": 67, "lat": 46.7817, "links": [5], "lng": -71.2747, "period": "", "subtitle": "", "title": "Les interactions lors de la lecture d\u2019histoires en premi\u00e8re ann\u00e9e", "year": "1997"}, {"author": "Larose, Fran\u00e7ois", "authorid": 32466, "documentid": 110812, "entitiyid": 1, "journal": "Cahiers de la recherche en \u00e9ducation", "journalid": 67, "lat": 45.3766, "links": [1, 5], "lng": -71.9255, "period": "", "subtitle": "", "title": "Socialisation traditionnelle et \u00e9ducation \u2013 L\u2019acculturation et la repr\u00e9sentation des r\u00f4les respectifs de la famille et de l\u2019\u00e9cole en milieu inuit", "year": "1996"}, {"author": "Riverin-Simard, Danielle", "authorid": 40327, "documentid": 110814, "entitiyid": 5, "journal": "Cahiers de la recherche en \u00e9ducation", "journalid": 67, "lat": 46.7817, "links": [5], "lng": -71.2747, "period": "", "subtitle": "", "title": "Le d\u00e9veloppement vocationnel adulte et le vieillissement", "year": "1996"}, {"author": "Spain, Armelle", "authorid": 40291, "documentid": 110818, "entitiyid": 5, "journal": "Cahiers de la recherche en \u00e9ducation", "journalid": 67, "lat": 46.7817, "links": [5], "lng": -71.2747, "period": "", "subtitle": "", "title": "L\u2019insertion socioprofessionnelle\u00a0: une recherche d\u2019int\u00e9grit\u00e9 et une mise en \u0153uvre du sens chez des femmes", "year": "1999"}, {"author": "Cartier, Sylvie", "authorid": 40334, "documentid": 110822, "entitiyid": 1, "journal": "Cahiers de la recherche en \u00e9ducation", "journalid": 67, "lat": 45.3766, "links": [1], "lng": -71.9255, "period": "", "subtitle": "", "title": "Un portrait des connaissances construites et des perceptions d\u2019\u00e9tudiants \u00e0 l\u2019\u00e9gard de diverses strat\u00e9gies d\u2019enseignement dans le cadre d\u2019un cours universitaire", "year": "1997"}, {"author": "Goyette, Robert", "authorid": 40337, "documentid": 110824, "entitiyid": 12, "journal": "Cahiers de la recherche en \u00e9ducation", "journalid": 67, "lat": 45.5126, "links": [12], "lng": -73.5606, "period": "", "subtitle": "", "title": "Les stagiaires et la gestion des comportements perturbateurs", "year": "1997"}, {"author": "Beaupr\u00e9, Pauline", "authorid": 40295, "documentid": 110825, "entitiyid": 1, "journal": "Cahiers de la recherche en \u00e9ducation", "journalid": 67, "lat": 45.3766, "links": [13, 1, 12], "lng": -71.9255, "period": "", "subtitle": "", "title": "L\u2019int\u00e9gration au primaire d\u2019\u00e9l\u00e8ves ayant une d\u00e9ficience intellectuelle\u00a0: perceptions de directions d\u2019\u00e9cole", "year": "1997"}, {"author": "Goupil, Georgette", "authorid": 32122, "documentid": 110842, "entitiyid": 12, "journal": "Cahiers de la recherche en \u00e9ducation", "journalid": 67, "lat": 45.5126, "links": [13, 1, 12], "lng": -73.5606, "period": "", "subtitle": "", "title": "L\u2019int\u00e9gration d\u2019\u00e9l\u00e8ves ayant une d\u00e9ficience intellectuelle\u00a0: satisfaction des parents et des enseignantes", "year": "1995"}, {"author": "L\u00e9ger, Michel", "authorid": 41585, "documentid": 114410, "entitiyid": 11, "journal": "Revue internationale des technologies en p\u00e9dagogie universitaire", "journalid": 72, "lat": 46.105, "links": [11], "lng": -64.7821, "period": "", "subtitle": "", "title": "Influence des t\u00e9l\u00e9voteurs sur le r\u00e9sultat scolaire\u00a0: une m\u00e9ta-analyse", "year": "2010"}, {"author": "H\u00e9bert, Mich\u00e8le", "authorid": 25312, "documentid": 114411, "entitiyid": 4, "journal": "Revue internationale des technologies en p\u00e9dagogie universitaire", "journalid": 72, "lat": 45.4231, "links": [11, 243, 4], "lng": -75.6831, "period": "", "subtitle": "", "title": "La pr\u00e9sentation \u00e9lectronique en ses paradoxes\u00a0: regards d\u2019\u00e9tudiants et de professeurs universitaires", "year": "2010"}, {"author": "Raby, Carole", "authorid": 41663, "documentid": 114449, "entitiyid": 12, "journal": "Revue internationale des technologies en p\u00e9dagogie universitaire", "journalid": 72, "lat": 45.5126, "links": [12, 8], "lng": -73.5606, "period": "", "subtitle": "", "title": "Usage des TIC en p\u00e9dagogie universitaire : point de vue des \u00e9tudiants", "year": "2011"}, {"author": "Andr\u00e9, Nathalie", "authorid": 42252, "documentid": 115386, "entitiyid": 1259, "journal": "Mesure et \u00e9valuation en \u00e9ducation", "journalid": 75, "lat": 46.586, "links": [1259, 8, 13], "lng": 0.346048, "period": "", "subtitle": "", "title": "La validit\u00e9 psychom\u00e9trique\u00a0: un regard global sur le concept centenaire, sa gen\u00e8se, ses avatars", "year": "2015"}, {"author": "Picard, France", "authorid": 42254, "documentid": 115389, "entitiyid": 5, "journal": "Mesure et \u00e9valuation en \u00e9ducation", "journalid": 75, "lat": 46.7817, "links": [5, 1225], "lng": -71.2747, "period": "", "subtitle": "", "title": "Op\u00e9rationnaliser la th\u00e9orie de la justice sociale d\u2019Amartya Sen au champ de l\u2019orientation scolaire\u00a0: les apports d\u2019une \u00e9tude multicas qualitative et comparative", "year": "2015"}, {"author": "Lapointe, Pierre", "authorid": 28650, "documentid": 115402, "entitiyid": 8, "journal": "Mesure et \u00e9valuation en \u00e9ducation", "journalid": 75, "lat": 45.5056, "links": [8], "lng": -73.6138, "period": "", "subtitle": "", "title": "Les plans strat\u00e9giques des commissions scolaires du Qu\u00e9bec", "year": "2012"}, {"author": "Schillings, Patricia", "authorid": 42291, "documentid": 115416, "entitiyid": 1222, "journal": "Mesure et \u00e9valuation en \u00e9ducation", "journalid": 75, "lat": 50.5831, "links": [1222], "lng": 5.55906, "period": "", "subtitle": "", "title": "Le r\u00f4le de la perception de soi comme lecteur dans le d\u00e9veloppement de la comp\u00e9tence en lecture", "year": "2013"}, {"author": "Poulin, Fran\u00e7ois", "authorid": 42300, "documentid": 115420, "entitiyid": 12, "journal": "Mesure et \u00e9valuation en \u00e9ducation", "journalid": 75, "lat": 45.5126, "links": [12, 8], "lng": -73.5606, "period": "", "subtitle": "", "title": "L\u2019utilisation de mesures indirectes et directes du comportement dans l\u2019\u00e9valuation des interventions ciblant les enfants agressifs", "year": "2011"}, {"author": "Leduc, Diane", "authorid": 27174, "documentid": 115421, "entitiyid": 12, "journal": "Mesure et \u00e9valuation en \u00e9ducation", "journalid": 75, "lat": 45.5126, "links": [12, 8], "lng": -73.5606, "period": "", "subtitle": "", "title": "L\u2019influence des d\u00e9finitions des habilet\u00e9s disciplinaires sur la cr\u00e9ation et le choix d\u2019items dans le PISA et le TEIMS", "year": "2011"}, {"author": "Salcin, Alice", "authorid": 42306, "documentid": 115424, "entitiyid": 25, "journal": "Mesure et \u00e9valuation en \u00e9ducation", "journalid": 75, "lat": 50.8132, "links": [25], "lng": 4.38222, "period": "", "subtitle": "", "title": "Les perceptions des enseignants-chercheurs de l\u2019Universit\u00e9 libre de Bruxelles \u00e0 propos de l\u2019\u00e9valuation des enseignements", "year": "2012"}, {"author": "Lakhal, Sawsen", "authorid": 42317, "documentid": 115429, "entitiyid": 5, "journal": "Mesure et \u00e9valuation en \u00e9ducation", "journalid": 75, "lat": 46.7817, "links": [5], "lng": -71.2747, "period": "", "subtitle": "", "title": "Les m\u00e9thodes d\u2019\u00e9valuation utilis\u00e9es \u00e0 l\u2019ordre d\u2019enseignement universitaire dans les cours en administration des affaires", "year": "2012"}, {"author": "St-Onge, Christina", "authorid": 42391, "documentid": 115494, "entitiyid": 1, "journal": "Mesure et \u00e9valuation en \u00e9ducation", "journalid": 75, "lat": 45.3766, "links": [1, 5], "lng": -71.9255, "period": "", "subtitle": "", "title": "Utilisation du Mini Entrevues Multiples en contexte francophone", "year": "2009"}, {"author": "B\u00e9land, S\u00e9bastien", "authorid": 27432, "documentid": 115512, "entitiyid": 8, "journal": "Mesure et \u00e9valuation en \u00e9ducation", "journalid": 75, "lat": 45.5056, "links": [1222, 8, 12], "lng": -73.6138, "period": "", "subtitle": "", "title": "\u00c9tude de nouveaux indices de d\u00e9tection de la r\u00e9ponse au hasard et de l\u2019inattention        selon diff\u00e9rentes valeurs de l\u2019habilet\u00e9 dans le contexte de la mod\u00e9lisation de Rasch", "year": "2016"}, {"author": "Wolfs, Jos\u00e9-Luis", "authorid": 42409, "documentid": 115515, "entitiyid": 25, "journal": "Mesure et \u00e9valuation en \u00e9ducation", "journalid": 75, "lat": 50.8132, "links": [25], "lng": 4.38222, "period": "", "subtitle": "", "title": "Les repr\u00e9sentations des \u00e9l\u00e8ves \u00e0 propos de diff\u00e9rentes postures intellectuelles possibles entre science et croyances religieuses\u00a0: mise \u00e0 l\u2019\u00e9preuve de la validit\u00e9 de construit d\u2019un questionnaire y aff\u00e9rant", "year": "2014"}, {"author": "Larouche, Catherine", "authorid": 42421, "documentid": 115518, "entitiyid": 391, "journal": "Mesure et \u00e9valuation en \u00e9ducation", "journalid": 75, "lat": 48.4203, "links": [391, 5], "lng": -71.0527, "period": "", "subtitle": "", "title": "Anasynth\u00e8se, typologies des conceptions des universit\u00e9s et \u00e9valuation de leur performance", "year": "2014"}, {"author": "Caron, Claudine", "authorid": 42691, "documentid": 115925, "entitiyid": 12, "journal": "Les Cahiers de la Soci\u00e9t\u00e9 qu\u00e9b\u00e9coise de recherche en musique", "journalid": 79, "lat": 45.5126, "links": [12, 8], "lng": -73.5606, "period": "Mai", "subtitle": "", "title": "\u00c9ditorial", "year": "2013"}, {"author": "Bouvier, F\u00e9lix", "authorid": 32460, "documentid": 116836, "entitiyid": 13, "journal": "Bulletin d'histoire politique", "journalid": 83, "lat": 46.3472, "links": [13], "lng": -72.5769, "period": "Printemps", "subtitle": "Hors dossier", "title": "L\u2019enseignement de l\u2019histoire au Qu\u00e9bec instrumentalis\u00e9 par l\u2019\u00e9ducation \u00e0 la citoyennet\u00e9\u00a0?", "year": "2013"}, {"author": "Dionne, Liliane", "authorid": 43624, "documentid": 117150, "entitiyid": 4, "journal": "Revue du Nouvel-Ontario", "journalid": 84, "lat": 45.4231, "links": [4], "lng": -75.6831, "period": "", "subtitle": "La francophonie en milieu \u00e9ducatif", "title": "Perception de la notion de communaut\u00e9 chez des acteurs scolaires franco-ontariens engag\u00e9s dans un partenariat \u00e9cole-communaut\u00e9", "year": "2010"}, {"author": "Power, Mark", "authorid": 43628, "documentid": 117152, "entitiyid": 4, "journal": "Revue du Nouvel-Ontario", "journalid": 84, "lat": 45.4231, "links": [4], "lng": -75.6831, "period": "", "subtitle": "", "title": "La  Loi sur les services en fran\u00e7ais  \u00e0 25\u00a0ans\u00a0:\u00a0constats et propositions", "year": "2014"}, {"author": "McLaughlin, Mireille", "authorid": 39265, "documentid": 117160, "entitiyid": 4, "journal": "Revue du Nouvel-Ontario", "journalid": 84, "lat": 45.4231, "links": [1147, 4], "lng": -75.6831, "period": "", "subtitle": "", "title": "Francophonie et socio\u00e9conomie\u00a0: quelles th\u00e9ories et quelles pratiques\u00a0?", "year": "2013"}, {"author": "Desrochers, Alain", "authorid": 43656, "documentid": 117186, "entitiyid": 4, "journal": "Revue du Nouvel-Ontario", "journalid": 84, "lat": 45.4231, "links": [4], "lng": -75.6831, "period": "", "subtitle": "", "title": "Le r\u00f4le de la conscience phonologique dans l\u2019apprentissage de la lecture", "year": "2009"}, {"author": "Bergeron, Jos\u00e9e", "authorid": 44377, "documentid": 117849, "entitiyid": 295, "journal": "Cahiers qu\u00e9b\u00e9cois de d\u00e9mographie", "journalid": 87, "lat": 45.5126, "links": [295, 1135], "lng": -73.5606, "period": "printemps", "subtitle": "Article hors-th\u00e8me", "title": "La contribution des Acadiens au peuplement des r\u00e9gions du Qu\u00e9bec 1", "year": "2008"}, {"author": "Boilard, Jo\u00ebl", "authorid": 45123, "documentid": 119331, "entitiyid": 11, "journal": "Voix et Images", "journalid": 89, "lat": 46.105, "links": [11, 4], "lng": -64.7821, "period": "printemps", "subtitle": "Dossier", "title": "Bibliographie de Germaine Gu\u00e8vremont", "year": "2008"}, {"author": "B\u00e9langer, David", "authorid": 35417, "documentid": 119815, "entitiyid": 12, "journal": "Voix et Images", "journalid": 89, "lat": 45.5126, "links": [12], "lng": -73.5606, "period": "Automne", "subtitle": "Dossier", "title": "Andr\u00e9 Belleau\u00a0: relire l\u2019essayiste", "year": "2016"}, {"author": "Dion, Robert", "authorid": 35593, "documentid": 120220, "entitiyid": 12, "journal": "Voix et Images", "journalid": 89, "lat": 45.5126, "links": [12], "lng": -73.5606, "period": "Hiver", "subtitle": "Dossier", "title": "Le  Triptyque des temps perdus  de Jean Marcel", "year": "2005"}, {"author": "Campbell, Stephanie", "authorid": 45300, "documentid": 120293, "entitiyid": 299, "journal": "Voix et Images", "journalid": 89, "lat": 45.5048, "links": [299], "lng": -73.5771, "period": "hiver", "subtitle": "Dossier", "title": "Gabrielle Roy en anthologie. Corpus et inventaire", "year": "2010"}, {"author": "Witvrouw, Line", "authorid": 47567, "documentid": 132418, "entitiyid": 1222, "journal": "Criminologie", "journalid": 95, "lat": 50.5831, "links": [1222], "lng": 5.55906, "period": "Automne", "subtitle": "", "title": "Bandes urbaines et groupes d\u00e9linquants en Belgique. Repr\u00e9sentations et savoirs", "year": "2015"}, {"author": "Katambwe, Jo", "authorid": 48861, "documentid": 133917, "entitiyid": 13, "journal": "Approches inductives", "journalid": 101, "lat": 46.3472, "links": [13], "lng": -72.5769, "period": "Automne", "subtitle": "", "title": "Approches m\u00e9thodologiques et objets d\u2019induction organisationnels\u00a0: la pertinence d\u2019une strat\u00e9gie de recherche multi\u00e9tag\u00e9e", "year": "2014"}, {"author": "Demers, St\u00e9phanie", "authorid": 27928, "documentid": 133932, "entitiyid": 243, "journal": "Approches inductives", "journalid": 101, "lat": 45.4225, "links": [243, 8], "lng": -75.7384, "period": "Automne", "subtitle": "", "title": "Les approches inductives au service de l\u2019agentivit\u00e9 \u00e9pist\u00e9mique et des finalit\u00e9s \u00e9ducatives \u00e9mancipatrices", "year": "2016"}, {"author": "Stoloff, Sacha", "authorid": 48886, "documentid": 133941, "entitiyid": 13, "journal": "Approches inductives", "journalid": 101, "lat": 46.3472, "links": [13, 1], "lng": -72.5769, "period": "Hiver", "subtitle": "", "title": "Le cycle de Kolb appliqu\u00e9 \u00e0 un processus de supervision p\u00e9dagogique classique\u00a0: perceptions des supervis\u00e9s \u00e0 propos du dispositif d'accompagnement", "year": "2016"}, {"author": "Chaubet, Philippe", "authorid": 32352, "documentid": 133942, "entitiyid": 12, "journal": "Approches inductives", "journalid": 101, "lat": 45.5126, "links": [12, 1, 8], "lng": -73.5606, "period": "Hiver", "subtitle": "", "title": "Vers une d\u00e9marche d\u2019ing\u00e9nierie inverse pour \u00e9tudier la r\u00e9flexion sur la pratique et ses situations de d\u00e9clenchement. Illustration sur quatre \u00e9tudes", "year": "2016"}, {"author": "Boutet, Marc", "authorid": 48893, "documentid": 133948, "entitiyid": 1, "journal": "Approches inductives", "journalid": 101, "lat": 45.3766, "links": [1], "lng": -71.9255, "period": "Hiver", "subtitle": "", "title": "Le pari de l\u2019accompagnement pour la formation de praticiens r\u00e9flexifs de l\u2019enseignement\u00a0: possibilit\u00e9s et limites d\u2019un syst\u00e8me de stages", "year": "2016"}, {"author": "Jacques, Marie-Claude", "authorid": 48898, "documentid": 133949, "entitiyid": 1, "journal": "Approches inductives", "journalid": 101, "lat": 45.3766, "links": [1, 8], "lng": -71.9255, "period": "Hiver", "subtitle": "", "title": "La m\u00e9thodologie de la th\u00e9orisation enracin\u00e9e constructiviste pour une perspective         nouvelle et n\u00e9cessaire de l\u2019adaptation des personnes vivant avec la schizophr\u00e9nie", "year": "2015"}, {"author": "H\u00e9bert, Maude", "authorid": 48903, "documentid": 133952, "entitiyid": 13, "journal": "Approches inductives", "journalid": 101, "lat": 46.3472, "links": [13, 1], "lng": -72.5769, "period": "Hiver", "subtitle": "", "title": "La th\u00e9orisation enracin\u00e9e dans l\u2019\u00e9tude de la transition des perceptions de l\u2019\u00e9tat de         sant\u00e9 de femmes atteintes d\u2019un cancer du sein", "year": "2015"}, {"author": "\u00c9thier, Sophie", "authorid": 48906, "documentid": 133954, "entitiyid": 5, "journal": "Approches inductives", "journalid": 101, "lat": 46.7817, "links": [5, 1], "lng": -71.2747, "period": "Hiver", "subtitle": "", "title": "Illustration de l\u2019analyse selon la m\u00e9thodologie de la th\u00e9orisation enracin\u00e9e (MTE) pour comprendre l\u2019engagement des aidants dans le traitement pharmacologique de la maladie d\u2019Alzheimer (MA) de leur proche", "year": "2015"}, {"author": "Bentz, David", "authorid": 49031, "documentid": 134119, "entitiyid": 8, "journal": "Eurostudia", "journalid": 104, "lat": 45.5056, "links": [8], "lng": -73.6138, "period": "", "subtitle": null, "title": "Kolloquiumsbericht", "year": "2015"}, {"author": "Pilote, Annie", "authorid": 52488, "documentid": 145272, "entitiyid": 37, "journal": "Nouvelles perspectives en sciences sociales", "journalid": 119, "lat": 46.7817, "links": [37], "lng": -71.2747, "period": "D\u00e9cembre", "subtitle": "", "title": "Identit\u00e9 linguistique et poids des langues\u00a0: une \u00e9tude comparative entre des jeunes de milieu scolaire francophone au Nouveau-Brunswick et anglophone au Qu\u00e9bec", "year": "2010"}, {"author": "Belzile, Louise", "authorid": 52648, "documentid": 145432, "entitiyid": 1, "journal": "Nouvelles perspectives en sciences sociales", "journalid": 119, "lat": 45.3766, "links": [1], "lng": -71.9255, "period": "Octobre", "subtitle": "", "title": "De l\u2019interdisciplinarit\u00e9 \u00e0 l\u2019inter- \u00e9pist\u00e9m\u00ea.  Le cas d\u2019une formation interdisciplinaire de troisi\u00e8me cycle en g\u00e9rontologie", "year": "2011"}, {"author": "Boivin, Isabelle", "authorid": 54091, "documentid": 147854, "entitiyid": 1, "journal": "Filigrane", "journalid": 125, "lat": 45.3766, "links": [1, 5], "lng": -71.9255, "period": "Automne", "subtitle": "Psychanalyse \u00e0 l\u2019universit\u00e9 ", "title": "Interpr\u00e9tation et interpr\u00e9tariat\u00a0: chass\u00e9-crois\u00e9 en th\u00e9rapies analytiques plurilingues", "year": "2011"}, {"author": "Lussier-Desrochers, Dany", "authorid": 745, "documentid": 147955, "entitiyid": 13, "journal": "Revue francophone de la d\u00e9ficience intellectuelle", "journalid": 126, "lat": 46.3472, "links": [13], "lng": -72.5769, "period": "", "subtitle": "", "title": "Les robots et l'intervention en d\u00e9ficience intellectuelle et trouble du spectre de        l\u2019autisme\u00a0: enjeux cliniques, technologiques et de gestion", "year": "2015"}, {"author": "Lachapelle, Yves", "authorid": 752, "documentid": 147971, "entitiyid": 13, "journal": "Revue francophone de la d\u00e9ficience intellectuelle", "journalid": 126, "lat": 46.3472, "links": [13], "lng": -72.5769, "period": "", "subtitle": "", "title": "Exp\u00e9rimentation d\u2019une technologie mobile d\u2019assistance \u00e0 la r\u00e9alisation de t\u00e2ches pour soutenir l\u2019autod\u00e9termination de personnes pr\u00e9sentant une d\u00e9ficience intellectuelle", "year": "2013"}, {"author": "Desbiens, Jean-Fran\u00e7ois", "authorid": 54326, "documentid": 148003, "entitiyid": 1, "journal": "\u00c9ducation et francophonie ", "journalid": 127, "lat": 45.3766, "links": [1, 8], "lng": -71.9255, "period": "printemps", "subtitle": "Liminaire", "title": "La supervision p\u00e9dagogique en enseignement de l\u2019\u00e9ducation physique", "year": "2009"}, {"author": "Rivard, Marie-Claude", "authorid": 29346, "documentid": 148006, "entitiyid": 13, "journal": "\u00c9ducation et francophonie ", "journalid": 127, "lat": 46.3472, "links": [13], "lng": -72.5769, "period": "printemps", "subtitle": "\u00a0", "title": "La triade\u00a0: une strat\u00e9gie de supervision \u00e0 red\u00e9finir!", "year": "2009"}, {"author": "Larose, Fran\u00e7ois", "authorid": 32466, "documentid": 153173, "entitiyid": 1, "journal": "Nouveaux cahiers de la recherche en \u00e9ducation", "journalid": 133, "lat": 45.3766, "links": [1, 11], "lng": -71.9255, "period": "", "subtitle": "", "title": "Analyse des pratiques enseignantes et la construction d\u2019un r\u00e9f\u00e9rentiel de comp\u00e9tences : perspectives et contraintes m\u00e9thodologiques", "year": "2009"}, {"author": "Niyubahwe, Aline", "authorid": 32467, "documentid": 153179, "entitiyid": 1, "journal": "Nouveaux cahiers de la recherche en \u00e9ducation", "journalid": 133, "lat": 45.3766, "links": [1], "lng": -71.9255, "period": "", "subtitle": "", "title": "S\u2019adapter au r\u00f4le professionnel lorsqu\u2019on est enseignant de migration r\u00e9cente au Qu\u00e9bec\u00a0: exp\u00e9rience, d\u00e9fis et facteurs de r\u00e9ussite", "year": "2013"}, {"author": "Mai Huy, Khoi", "authorid": 57513, "documentid": 153183, "entitiyid": 1, "journal": "Nouveaux cahiers de la recherche en \u00e9ducation", "journalid": 133, "lat": 45.3766, "links": [1], "lng": -71.9255, "period": "", "subtitle": "", "title": "L\u2019influence du contexte statistique sur le raisonnement proportionnel d\u2019\u00e9l\u00e8ves du\n        primaire", "year": "2013"}, {"author": "Myre-Bisaillon, Julie", "authorid": 29047, "documentid": 153184, "entitiyid": 1, "journal": "Nouveaux cahiers de la recherche en \u00e9ducation", "journalid": 133, "lat": 45.3766, "links": [1, 13], "lng": -71.9255, "period": "", "subtitle": "", "title": "\u00c9veil \u00e0 la lecture et \u00e0 l\u2019\u00e9criture dans les services de garde en milieu scolaire\u00a0: engagement et ouverture face aux livres", "year": "2014"}, {"author": "Myre-Bisaillon, Julie", "authorid": 29047, "documentid": 153188, "entitiyid": 1, "journal": "Nouveaux cahiers de la recherche en \u00e9ducation", "journalid": 133, "lat": 45.3766, "links": [1], "lng": -71.9255, "period": "", "subtitle": "", "title": "Les pratiques d\u2019\u00e9veil \u00e0 la lecture et \u00e0 l\u2019\u00e9criture \u00e0 la maternelle en milieux d\u00e9favoris\u00e9s\u00a0: quand les parents viennent en classe", "year": "2014"}, {"author": "Gagnon, Jocelyn", "authorid": 57528, "documentid": 153193, "entitiyid": 5, "journal": "Nouveaux cahiers de la recherche en \u00e9ducation", "journalid": 133, "lat": 46.7817, "links": [5, 1], "lng": -71.2747, "period": "", "subtitle": "", "title": "Les injustices per\u00e7ues par les \u00e9l\u00e8ves\u00a0: un message r\u00e9v\u00e9lateur pour les enseignants", "year": "2006"}, {"author": "D\u00e9ry, Mich\u00e8le", "authorid": 57540, "documentid": 153204, "entitiyid": 1, "journal": "Nouveaux cahiers de la recherche en \u00e9ducation", "journalid": 133, "lat": 45.3766, "links": [1], "lng": -71.9255, "period": "", "subtitle": "", "title": "Adaptation scolaire et sociale d\u2019\u00e9l\u00e8ves ayant re\u00e7u des services \u00e9ducatifs compl\u00e9mentaires pour troubles de comportement d\u00e8s le d\u00e9but de leur scolarit\u00e9", "year": "2007"}, {"author": "Deaudelin, Colette", "authorid": 57538, "documentid": 153205, "entitiyid": 1, "journal": "Nouveaux cahiers de la recherche en \u00e9ducation", "journalid": 133, "lat": 45.3766, "links": [1], "lng": -71.9255, "period": "", "subtitle": "", "title": "L\u2019\u00e9valuation formative en contexte de renouveau p\u00e9dagogique au primaire\u00a0: analyse de pratiques au service de la r\u00e9ussite", "year": "2007"}, {"author": "Trudel, Marcel", "authorid": 57562, "documentid": 153217, "entitiyid": 1, "journal": "Nouveaux cahiers de la recherche en \u00e9ducation", "journalid": 133, "lat": 45.3766, "links": [1], "lng": -71.9255, "period": "", "subtitle": "", "title": "\u00c9volution des processus d\u2019int\u00e9gration sociale des \u00e9l\u00e8ves en fonction du profil de sant\u00e9 mentale au d\u00e9but du primaire", "year": "2005"}, {"author": "D\u00e9ry, Mich\u00e8le", "authorid": 57540, "documentid": 153219, "entitiyid": 1, "journal": "Nouveaux cahiers de la recherche en \u00e9ducation", "journalid": 133, "lat": 45.3766, "links": [1], "lng": -71.9255, "period": "", "subtitle": "", "title": "Les services scolaires et sociaux offerts aux \u00e9l\u00e8ves du primaire pr\u00e9sentant des        troubles de comportement", "year": "2005"}, {"author": "Pauz\u00e9, Robert", "authorid": 40304, "documentid": 153220, "entitiyid": 1, "journal": "Nouveaux cahiers de la recherche en \u00e9ducation", "journalid": 133, "lat": 45.3766, "links": [1], "lng": -71.9255, "period": "", "subtitle": "", "title": "Diversit\u00e9 des profils cliniques des familles des enfants pr\u00e9sentant des probl\u00e8mes de comportement en milieu scolaire", "year": "2005"}, {"author": "Marcotte, Julie", "authorid": 57570, "documentid": 153221, "entitiyid": 1, "journal": "Nouveaux cahiers de la recherche en \u00e9ducation", "journalid": 133, "lat": 45.3766, "links": [5, 12, 1], "lng": -71.9255, "period": "", "subtitle": "", "title": "\u00c9volution de l\u2019engagement parental aupr\u00e8s des \u00e9l\u00e8ves en difficult\u00e9 de        comportement et des \u00e9l\u00e8ves ordinaires au d\u00e9but du secondaire", "year": "2005"}, {"author": "Joly, Jacques", "authorid": 28081, "documentid": 153224, "entitiyid": 1, "journal": "Nouveaux cahiers de la recherche en \u00e9ducation", "journalid": 133, "lat": 45.3766, "links": [1], "lng": -71.9255, "period": "", "subtitle": "", "title": "La fid\u00e9lit\u00e9 d\u2019implantation des programmes de pr\u00e9vention ou        d\u2019intervention dans les \u00e9coles aupr\u00e8s des \u00e9l\u00e8ves en difficult\u00e9 de        comportements", "year": "2005"}, {"author": "Marcotte, Diane", "authorid": 57572, "documentid": 153225, "entitiyid": 12, "journal": "Nouveaux cahiers de la recherche en \u00e9ducation", "journalid": 133, "lat": 45.5126, "links": [12], "lng": -73.5606, "period": "", "subtitle": "", "title": "Comparaison des facteurs personnels, scolaires et familiaux associ\u00e9s aux troubles        int\u00e9rioris\u00e9s \u00e0 la fin du primaire et au d\u00e9but du secondaire", "year": "2005"}, {"author": "Fortin, Laurier", "authorid": 28213, "documentid": 153226, "entitiyid": 1, "journal": "Nouveaux cahiers de la recherche en \u00e9ducation", "journalid": 133, "lat": 45.3766, "links": [5, 13, 12, 1], "lng": -71.9255, "period": "", "subtitle": "", "title": "Facteurs personnels, scolaires et familiaux diff\u00e9renciant les gar\u00e7ons en probl\u00e8mes de comportement du secondaire qui ont d\u00e9croch\u00e9 ou non de l\u2019\u00e9cole", "year": "2005"}, {"author": "Le Corff, Yann", "authorid": 57580, "documentid": 153227, "entitiyid": 1, "journal": "Nouveaux cahiers de la recherche en \u00e9ducation", "journalid": 133, "lat": 45.3766, "links": [1], "lng": -71.9255, "period": "", "subtitle": "", "title": "Les troubles de comportement \u00e0 l\u2019adolescence\u00a0: description, adaptation et        \u00e9volution", "year": "2005"}, {"author": "Turcotte, Sylvain", "authorid": 27593, "documentid": 153230, "entitiyid": 1, "journal": "Nouveaux cahiers de la recherche en \u00e9ducation", "journalid": 133, "lat": 45.3766, "links": [13, 1, 4, 12], "lng": -71.9255, "period": "", "subtitle": "", "title": "Besoins de formation continue d\u2019\u00e9ducateurs physiques et \u00e0 la sant\u00e9", "year": "2011"}, {"author": "Desbiens, Jean-Fran\u00e7ois", "authorid": 54326, "documentid": 153240, "entitiyid": 1, "journal": "Nouveaux cahiers de la recherche en \u00e9ducation", "journalid": 133, "lat": 45.3766, "links": [1], "lng": -71.9255, "period": "", "subtitle": "", "title": "Perception de la fr\u00e9quence d\u2019apparition des comportements perturbateurs par des stagiaires en enseignement de l\u2019\u00e9ducation physique et \u00e0 la sant\u00e9 (EPS)", "year": "2009"}, {"author": "Doucet, Jean-Jacques", "authorid": 57604, "documentid": 153244, "entitiyid": 11, "journal": "Nouveaux cahiers de la recherche en \u00e9ducation", "journalid": 133, "lat": 46.105, "links": [11], "lng": -64.7821, "period": "", "subtitle": "", "title": "Influence parentale sur le rendement scolaire\u00a0: comparaison entre des \u00e9l\u00e8ves n\u00e9s au Canada et des \u00e9l\u00e8ves n\u00e9s \u00e0 l\u2019ext\u00e9rieur du pays", "year": "2009"}, {"author": "Gohier, Christiane", "authorid": 27855, "documentid": 153254, "entitiyid": 12, "journal": "Nouveaux cahiers de la recherche en \u00e9ducation", "journalid": 133, "lat": 45.5126, "links": [12, 1], "lng": -73.5606, "period": "", "subtitle": "", "title": "Le processus de r\u00e9flexion \u00e9thique chez des enseignants de l\u2019ordre coll\u00e9gial", "year": "2015"}, {"author": "Doyon, Andr\u00e9", "authorid": 27985, "documentid": 153268, "entitiyid": 11, "journal": "Nouveaux cahiers de la recherche en \u00e9ducation", "journalid": 133, "lat": 46.105, "links": [11, 5], "lng": -64.7821, "period": "", "subtitle": "", "title": "Analyse de pratique et processus de transformation chez des \u00e9ducateurs", "year": "2008"}, {"author": "Spain, Armelle", "authorid": 40291, "documentid": 153273, "entitiyid": 5, "journal": "Nouveaux cahiers de la recherche en \u00e9ducation", "journalid": 133, "lat": 46.7817, "links": [5], "lng": -71.2747, "period": "", "subtitle": "", "title": "Travail et dimension relationnelle chez des hommes\u00a0: un espace ignor\u00e9 mais r\u00e9el", "year": "2008"}, {"author": "Lavigne, Judith", "authorid": 57637, "documentid": 153278, "entitiyid": 5, "journal": "Nouveaux cahiers de la recherche en \u00e9ducation", "journalid": 133, "lat": 46.7817, "links": [5], "lng": -71.2747, "period": "", "subtitle": "", "title": "Le rappel de r\u00e9cit\u00a0: comparaison de trois m\u00e9thodes de cotation", "year": "2007"}, {"author": "Lizotte, Shelbie", "authorid": 57650, "documentid": 153297, "entitiyid": 1, "journal": "Nouveaux cahiers de la recherche en \u00e9ducation", "journalid": 133, "lat": 45.3766, "links": [1], "lng": -71.9255, "period": "", "subtitle": "Article hors th\u00e8me", "title": "Caract\u00e9ristiques familiales d\u2019\u00e9l\u00e8ves du primaire ayant des troubles ext\u00e9rioris\u00e9s et int\u00e9rioris\u00e9s", "year": "2008"}, {"author": "Hasni, Abdelkrim", "authorid": 27929, "documentid": 153298, "entitiyid": 1, "journal": "Nouveaux cahiers de la recherche en \u00e9ducation", "journalid": 133, "lat": 45.3766, "links": [1], "lng": -71.9255, "period": "", "subtitle": "", "title": "L\u2019enseignement par projets en sciences et technologies\u00a0: de quoi parle-t-on et comment justifie-t-on le recours \u00e0 cette approche? 1", "year": "2011"}, {"author": "Boutin, Pier-Ann", "authorid": 57662, "documentid": 153309, "entitiyid": 5, "journal": "Nouveaux cahiers de la recherche en \u00e9ducation", "journalid": 133, "lat": 46.7817, "links": [5], "lng": -71.2747, "period": "", "subtitle": "", "title": "La s\u00e9lection des id\u00e9es prometteuses dans le discours collectif d\u2019\u00e9l\u00e8ves du        primaire", "year": "2015"}, {"author": "Morin, Marie-France", "authorid": 57599, "documentid": 153315, "entitiyid": 1, "journal": "Nouveaux cahiers de la recherche en \u00e9ducation", "journalid": 133, "lat": 45.3766, "links": [1, 8], "lng": -71.9255, "period": "", "subtitle": "", "title": "La litt\u00e9rature jeunesse en premi\u00e8re ann\u00e9e pour apprendre \u00e0 lire et \u00e0 \u00e9crire", "year": "2006"}, {"author": "Venet, Mich\u00e8le", "authorid": 27762, "documentid": 153318, "entitiyid": 1, "journal": "Nouveaux cahiers de la recherche en \u00e9ducation", "journalid": 133, "lat": 45.3766, "links": [1, 12], "lng": -71.9255, "period": "", "subtitle": "", "title": "De l\u2019utilit\u00e9 du d\u00e9pistage cognitif et socio-affectif \u00e0 l\u2019\u00e2ge pr\u00e9scolaire", "year": "2006"}, {"author": "Squalli, Hassane", "authorid": 57677, "documentid": 153319, "entitiyid": 1, "journal": "Nouveaux cahiers de la recherche en \u00e9ducation", "journalid": 133, "lat": 45.3766, "links": [1], "lng": -71.9255, "period": "", "subtitle": "Introduction", "title": "Intervention aupr\u00e8s de l\u2019\u00e9l\u00e8ve \u00e0 risque\u00a0: approchesmultiples et diff\u00e9renci\u00e9es", "year": "2006"}, {"author": "Denis, Constance", "authorid": 57679, "documentid": 153322, "entitiyid": 1, "journal": "Nouveaux cahiers de la recherche en \u00e9ducation", "journalid": 133, "lat": 45.3766, "links": [1], "lng": -71.9255, "period": "", "subtitle": "", "title": "Pratiques d\u00e9clar\u00e9es d\u2019adaptation de l\u2019enseignement en contexte d\u2019inclusion d\u2019\u00e9l\u00e8ves de deuxi\u00e8me cycle du secondaire ayant une dyslexie", "year": "2013"}, {"author": "Labrecque, Anne-Marie", "authorid": 57681, "documentid": 153324, "entitiyid": 1, "journal": "Nouveaux cahiers de la recherche en \u00e9ducation", "journalid": 133, "lat": 45.3766, "links": [1, 8], "lng": -71.9255, "period": "", "subtitle": "", "title": "Quelle place est accord\u00e9e \u00e0 la composante graphomotrice de l\u2019\u00e9criture dans les classes au d\u00e9but du primaire? Enqu\u00eate aupr\u00e8s d\u2019enseignants qu\u00e9b\u00e9cois", "year": "2013"}, {"author": "Poirier, Martine", "authorid": 57685, "documentid": 153326, "entitiyid": 1, "journal": "Nouveaux cahiers de la recherche en \u00e9ducation", "journalid": 133, "lat": 45.3766, "links": [1], "lng": -71.9255, "period": "", "subtitle": "", "title": "La perception diff\u00e9renci\u00e9e de la relation \u00e9l\u00e8ve-enseignant par les \u00e9l\u00e8ves \u00e0 risque et non \u00e0 risque de d\u00e9crochage scolaire", "year": "2013"}, {"author": "Deaudelin, Colette", "authorid": 57538, "documentid": 153330, "entitiyid": 1, "journal": "Nouveaux cahiers de la recherche en \u00e9ducation", "journalid": 133, "lat": 45.3766, "links": [1, 13], "lng": -71.9255, "period": "", "subtitle": "", "title": "Changement conceptuel chez des enseignants en situation de d\u00e9veloppement professionnel\u00a0: une m\u00e9thode d\u2019analyse", "year": "2005"}, {"author": "Halsouet, B\u00e9atrice", "authorid": 57697, "documentid": 153336, "entitiyid": 1, "journal": "Nouveaux cahiers de la recherche en \u00e9ducation", "journalid": 133, "lat": 45.3766, "links": [1], "lng": -71.9255, "period": "", "subtitle": "", "title": "Deux d\u00e9marches autour de l\u2019enseignement-apprentissage de l\u2019oral en formation initiale \u00e0 l\u2019enseignement au pr\u00e9scolaire et au primaire", "year": "2005"}, {"author": "de Saint-Andr\u00e9, Marie", "authorid": 57701, "documentid": 153344, "entitiyid": 8, "journal": "Nouveaux cahiers de la recherche en \u00e9ducation", "journalid": 133, "lat": 45.5056, "links": [8, 1], "lng": -73.6138, "period": "", "subtitle": "", "title": "Avantages et limites des approches m\u00e9thodologiques utilis\u00e9es pour \u00e9tudier les pratiques enseignantes", "year": "2010"}, {"author": "Yergeau, \u00c9ric", "authorid": 57568, "documentid": 153346, "entitiyid": 1, "journal": "Nouveaux cahiers de la recherche en \u00e9ducation", "journalid": 133, "lat": 45.3766, "links": [1], "lng": -71.9255, "period": "", "subtitle": "", "title": "La persistance des troubles des conduites chez les gar\u00e7ons \u00e2g\u00e9s de 6 \u00e0 11 ans: effets principaux et interaction du contexte familial et du temp\u00e9rament des enfants", "year": "2010"}, {"author": "Gagnon, Claudia", "authorid": 57709, "documentid": 153354, "entitiyid": 1, "journal": "Nouveaux cahiers de la recherche en \u00e9ducation", "journalid": 133, "lat": 45.3766, "links": [1], "lng": -71.9255, "period": "", "subtitle": "", "title": "Fondements et pratique de l\u2019alternance en formation \u00e0 l\u2019enseignement professionnel\u00a0: quelques donn\u00e9es de recherches autour de l\u2019\u00e9laboration et de la mise en \u0153uvre \u00e0 l\u2019Universit\u00e9 de Sherbrooke", "year": "2010"}, {"author": "Naud, Daniel", "authorid": 57727, "documentid": 153371, "entitiyid": 8, "journal": "Cahiers de g\u00e9ographie du Qu\u00e9bec", "journalid": 134, "lat": 45.5056, "links": [8, 12], "lng": -73.6138, "period": "avril", "subtitle": "Articles", "title": "Carte m\u00e9thodologique d\u2019un groupe t\u00e9moin", "year": "2008"}, {"author": "Deligne, Chlo\u00e9", "authorid": 12089, "documentid": 154165, "entitiyid": 25, "journal": "Cahiers de g\u00e9ographie du Qu\u00e9bec", "journalid": 134, "lat": 50.8132, "links": [25], "lng": 4.38222, "period": "septembre", "subtitle": "Articles", "title": "Les territoires de l\u2019homosexualit\u00e9 \u00e0 Bruxelles\u00a0: visibles et invisibles", "year": "2006"}, {"author": "Allain, Greg", "authorid": 25344, "documentid": 155965, "entitiyid": 11, "journal": "Cahiers de g\u00e9ographie du Qu\u00e9bec", "journalid": 134, "lat": 46.105, "links": [1147, 243], "lng": -64.7821, "period": "Avril", "subtitle": "Transformation de \u00ab l'urbain \u00bb et du \u00ab rural \u00bb et territorialit\u00e9 des soci\u00e9t\u00e9s contemporaines", "title": "Communaut\u00e9s francophones minoritaires et grappes culturelles \u00e9mergentes dans les villes moyennes\u00a0:\u00a0une comparaison Moncton-Sudbury", "year": "2012"}, {"author": "Biba, Gjin", "authorid": 58855, "documentid": 156004, "entitiyid": 5, "journal": "Cahiers de g\u00e9ographie du Qu\u00e9bec", "journalid": 134, "lat": 46.7817, "links": [5], "lng": -71.2747, "period": "d\u00e9cembre", "subtitle": "Qu\u00e9bec comme laboratoire urbain", "title": "Formes commerciales et mobilit\u00e9 \u00e0 Qu\u00e9bec\u00a0: quelle organisation spatiale\u00a0?", "year": "2007"}, {"author": "Villeneuve, Paul", "authorid": 57990, "documentid": 156006, "entitiyid": 5, "journal": "Cahiers de g\u00e9ographie du Qu\u00e9bec", "journalid": 134, "lat": 46.7817, "links": [5], "lng": -71.2747, "period": "d\u00e9cembre", "subtitle": "Qu\u00e9bec comme laboratoire urbain", "title": "L\u2019\u00e9nigme de Qu\u00e9bec\u2026 ou de ses banlieues", "year": "2007"}, {"author": "Vincens, Marion", "authorid": 58866, "documentid": 156020, "entitiyid": 5, "journal": "Cahiers de g\u00e9ographie du Qu\u00e9bec", "journalid": 134, "lat": 46.7817, "links": [5], "lng": -71.2747, "period": "d\u00e9cembre", "subtitle": "Qu\u00e9bec comme laboratoire urbain", "title": "Impacts de la restructuration du r\u00e9seau d\u2019autobus de la ville de Qu\u00e9bec sur l\u2019accessibilit\u00e9 aux emplois des femmes et sur leur mobilit\u00e9 professionnelle", "year": "2007"}, {"author": "L\u00f3pez Castro, Marco", "authorid": 58920, "documentid": 156116, "entitiyid": 5, "journal": "Cahiers de g\u00e9ographie du Qu\u00e9bec", "journalid": 134, "lat": 46.7817, "links": [5], "lng": -71.2747, "period": "Septembre", "subtitle": "Articles", "title": "\u00c9volution de la mobilit\u00e9 des membres de familles monoparentales dans la r\u00e9gion        m\u00e9tropolitaine de Qu\u00e9bec de 1996 \u00e0 2006\u00a0: comparaison entre les m\u00e9nages matricentriques et        patricentriques", "year": "2015"}, {"author": "Mercier, Guy", "authorid": 58035, "documentid": 156550, "entitiyid": 5, "journal": "Cahiers de g\u00e9ographie du Qu\u00e9bec", "journalid": 134, "lat": 46.7817, "links": [5, 391], "lng": -71.2747, "period": "D\u00e9cembre", "subtitle": "Note liminaire", "title": "L\u2019urbanisation diffuse\u00a0: un difficile mais in\u00e9vitable d\u00e9fi d\u2019am\u00e9nagement", "year": "2014"}, {"author": "C\u00f4t\u00e9, Michel", "authorid": 58710, "documentid": 156560, "entitiyid": 5, "journal": "Cahiers de g\u00e9ographie du Qu\u00e9bec", "journalid": 134, "lat": 46.7817, "links": [5], "lng": -71.2747, "period": "D\u00e9cembre", "subtitle": "Articles", "title": "L\u2019urbanisation de la campagne. Motifs et options du r\u00e9gime qu\u00e9b\u00e9cois de protection du        territoire agricole", "year": "2014"}, {"author": "Joerin, Florent", "authorid": 59292, "documentid": 157152, "entitiyid": 5, "journal": "Cahiers de g\u00e9ographie du Qu\u00e9bec", "journalid": 134, "lat": 46.7817, "links": [5], "lng": -71.2747, "period": "d\u00e9cembre", "subtitle": "Articles", "title": "Analyse spatiale des conflits urbains", "year": "2005"}, {"author": "Bricault, Christine", "authorid": 59620, "documentid": 158639, "entitiyid": 37, "journal": "Rabaska", "journalid": 136, "lat": 46.7817, "links": [37], "lng": -71.2747, "period": "", "subtitle": "Terrains", "title": "R\u00e9flexion autour d\u2019une recherche appliqu\u00e9e\u00a0: l\u2019\u00e9cole n o  2 du rang Saint-Jacques rena\u00eetra-t-elle de ses cendres\u00a0?", "year": "2006"}, {"author": "Martel, Pierre", "authorid": 25482, "documentid": 166740, "entitiyid": 1, "journal": "Revue qu\u00e9b\u00e9coise de linguistique", "journalid": 141, "lat": 45.3766, "links": [1], "lng": -71.9255, "period": "", "subtitle": "Articles", "title": "Le fran\u00e7ais qu\u00e9b\u00e9cois et la l\u00e9gitimit\u00e9 de sa description", "year": "1998"}, {"author": "Cedergren, Henrietta", "authorid": 63189, "documentid": 166764, "entitiyid": 12, "journal": "Revue qu\u00e9b\u00e9coise de linguistique", "journalid": 141, "lat": 45.5126, "links": [12], "lng": -73.5606, "period": "", "subtitle": "Articles th\u00e9matiques", "title": "L\u2019accentuation qu\u00e9b\u00e9coise\u00a0: une approche tonale", "year": "1990"}, {"author": "Poir\u00e9, Fran\u00e7ois", "authorid": 63191, "documentid": 166771, "entitiyid": 12, "journal": "Revue qu\u00e9b\u00e9coise de linguistique", "journalid": 141, "lat": 45.5126, "links": [12], "lng": -73.5606, "period": "", "subtitle": "Articles th\u00e9matiques", "title": "Le syntagme intonatif en langage spontan\u00e9\u00a0: \u00e9tude pr\u00e9liminaire", "year": "1990"}, {"author": "Kaye, Jonathan", "authorid": 21025, "documentid": 166804, "entitiyid": 12, "journal": "Revue qu\u00e9b\u00e9coise de linguistique", "journalid": 141, "lat": 45.5126, "links": [12], "lng": -73.5606, "period": "", "subtitle": "Articles", "title": "Les formes verbales de l\u2019arabe marocain", "year": "1986"}, {"author": "G\u00e9linas-Chebat, Claire", "authorid": 63263, "documentid": 166851, "entitiyid": 12, "journal": "Revue qu\u00e9b\u00e9coise de linguistique", "journalid": 141, "lat": 45.5126, "links": [12], "lng": -73.5606, "period": "", "subtitle": "Articles", "title": "Effets de la lisibilit\u00e9 du texte et de l\u2019image sur l\u2019efficacit\u00e9 du message publicitaire", "year": "1996"}, {"author": "Saint-Pierre, Madeleine", "authorid": 21074, "documentid": 166914, "entitiyid": 12, "journal": "Revue qu\u00e9b\u00e9coise de linguistique", "journalid": 141, "lat": 45.5126, "links": [12], "lng": -73.5606, "period": "", "subtitle": "Notes et remarques", "title": "Bon , c\u2019est toute une histoire!", "year": "1987"}, {"author": "Reinwein, Joachim", "authorid": 63262, "documentid": 166966, "entitiyid": 12, "journal": "Revue qu\u00e9b\u00e9coise de linguistique", "journalid": 141, "lat": 45.5126, "links": [12], "lng": -73.5606, "period": "", "subtitle": "Articles", "title": "\u00c9tude des processus d\u2019int\u00e9gration chez le lecteur sourd et chez le lecteur entendant", "year": "2001"}, {"author": "Dubuisson, Colette", "authorid": 63349, "documentid": 167069, "entitiyid": 12, "journal": "Revue qu\u00e9b\u00e9coise de linguistique", "journalid": 141, "lat": 45.5126, "links": [12], "lng": -73.5606, "period": "", "subtitle": "", "title": "Les mouvements de t\u00eate dans les interrogatives en langue des signes qu\u00e9b\u00e9coise", "year": "1991"}, {"author": "St-Pierre, Marc", "authorid": 63436, "documentid": 167075, "entitiyid": 12, "journal": "Revue qu\u00e9b\u00e9coise de linguistique", "journalid": 141, "lat": 45.5126, "links": [12], "lng": -73.5606, "period": "", "subtitle": "Notes et remarques", "title": "Le temps recouvr\u00e9\u00a0: de la pertinence d\u2019une constitution de corpus; m\u00e9thodologie et usage", "year": "1991"}, {"author": "B\u00e9chard, Marie-Jos\u00e9e", "authorid": 63497, "documentid": 167152, "entitiyid": 12, "journal": "Revue d'histoire de l'Am\u00e9rique fran\u00e7aise", "journalid": 142, "lat": 45.5126, "links": [12, 13], "lng": -73.5606, "period": "Hiver", "subtitle": "", "title": "Bibliographie", "year": "2004"}, {"author": "O\u2019Neill, St\u00e9phanie", "authorid": 63546, "documentid": 167223, "entitiyid": 8, "journal": "Revue d\u2019histoire de l\u2019Am\u00e9rique fran\u00e7aise", "journalid": 143, "lat": 45.5056, "links": [8, 299], "lng": -73.6138, "period": "\u00c9t\u00e9", "subtitle": "", "title": "Bibliographie des articles r\u00e9cents sur l\u2019histoire de l\u2019Am\u00e9rique fran\u00e7aise", "year": "2011"}, {"author": "McNally, Carolynn", "authorid": 63747, "documentid": 167560, "entitiyid": 299, "journal": "Revue d\u2019histoire de l\u2019Am\u00e9rique fran\u00e7aise", "journalid": 143, "lat": 45.5048, "links": [13, 8, 299, 12], "lng": -73.5771, "period": "Hiver", "subtitle": "", "title": "Bibliographie sur l\u2019histoire de l\u2019Am\u00e9rique fran\u00e7aise", "year": "2013"}, {"author": "Larochelle, Catherine", "authorid": 30289, "documentid": 168152, "entitiyid": 8, "journal": "Revue d\u2019histoire de l\u2019Am\u00e9rique fran\u00e7aise", "journalid": 143, "lat": 45.5056, "links": [8, 12], "lng": -73.6138, "period": "\u00c9t\u00e9", "subtitle": "", "title": "Bibliographie sur l\u2019histoire de l\u2019am\u00e9rique fran\u00e7aise", "year": "2016"}, {"author": "Mathieu, Jacques", "authorid": 63982, "documentid": 168779, "entitiyid": 20, "journal": "Revue d'histoire de l'Am\u00e9rique fran\u00e7aise", "journalid": 142, "lat": 46.7817, "links": [20], "lng": -71.2747, "period": "printemps", "subtitle": "", "title": "Les aveux et d\u00e9nombrements du R\u00e9gime fran\u00e7ais (1723-1745)", "year": "1989"},